[
  {
    "id": 257,
    "meeting_name": "市原例会",
    "next_date": "2026-06-21",
    "start_time": "09:50",
    "end_time": "11:50",
    "recurrence": "第1・第3日曜",
    "address": "〒290-0062 千葉県市原市八幡１０５０−３",
    "prefecture": "千葉県",
    "latitude": 35.5373022,
    "longitude": 140.1154897
  },
  {
    "id": 1434,
    "meeting_name": "福岡月例会",
    "next_date": "2026-06-21",
    "start_time": "10:00",
    "end_time": "12:00",
    "recurrence": "第3日曜",
    "address": "福岡県福岡市南区塩原 2-8-2",
    "prefecture": "福岡県",
    "latitude": 33.565971,
    "longitude": 130.423935
  },
  {
    "id": 247,
    "meeting_name": "福生市民公開セミナー",
    "next_date": "2026-06-21",
    "start_time": "13:00",
    "end_time": "15:00",
    "recurrence": "第3・第4日曜",
    "address": "〒190-0013 東京都立川市富士見町２丁目３６−４７",
    "prefecture": "東京都",
    "latitude": 35.7012732,
    "longitude": 139.4019165
  },
  {
    "id": 1477,
    "meeting_name": "門司松ヶ江病院月例会",
    "next_date": "2026-06-21",
    "start_time": "13:00",
    "end_time": "15:00",
    "recurrence": "第3日曜",
    "address": "福岡県北九州市門司区畑３５５",
    "prefecture": "福岡県",
    "latitude": 33.886688,
    "longitude": 130.974167
  },
  {
    "id": 258,
    "meeting_name": "鎌ケ谷例会",
    "next_date": "2026-06-21",
    "start_time": "13:30",
    "end_time": "20:30",
    "recurrence": "第3日曜",
    "address": "〒273-0107 千葉県鎌ケ谷市新鎌ケ谷２丁目６−１",
    "prefecture": "千葉県",
    "latitude": 35.7768081,
    "longitude": 140.00084
  },
  {
    "id": 147,
    "meeting_name": "あおぞら例会",
    "next_date": "2026-06-21",
    "start_time": "13:30",
    "end_time": "15:30",
    "recurrence": "第1・第3・第5日曜",
    "address": "さいたま市浦和区常盤9丁目30",
    "prefecture": "埼玉県",
    "latitude": 35.8710585,
    "longitude": 139.6425388
  },
  {
    "id": 520,
    "meeting_name": "あおぞら例会",
    "next_date": "2026-06-21",
    "start_time": "13:30",
    "end_time": "15:30",
    "recurrence": "第1・第3・第5日曜",
    "address": "埼玉県さいたま市浦和区常盤９丁目３０",
    "prefecture": "埼玉県",
    "latitude": 35.870230352931166,
    "longitude": 139.6435416423446
  },
  {
    "id": 1783,
    "meeting_name": "かずさ例会",
    "next_date": "2026-06-21",
    "start_time": "14:00",
    "end_time": "16:00",
    "recurrence": "第3日曜",
    "address": "千葉県君津市久保２丁目１３−２",
    "prefecture": "千葉県",
    "latitude": 35.330471,
    "longitude": 139.901428
  },
  {
    "id": 15,
    "meeting_name": "西武断酒会　若葉会",
    "next_date": "2026-06-21",
    "start_time": "14:00",
    "end_time": "16:00",
    "recurrence": "第3日曜",
    "address": "〒180-0013 東京都武蔵野市西久保１丁目２３−７ 西久保コミュニティセンター",
    "prefecture": "東京都",
    "latitude": 35.706036,
    "longitude": 139.5568566
  },
  {
    "id": 241,
    "meeting_name": "立川家族会",
    "next_date": "2026-06-21",
    "start_time": "14:00",
    "end_time": "16:00",
    "recurrence": "第3日曜",
    "address": "〒190-0023 東京都立川市柴崎町２丁目１５−８",
    "prefecture": "東京都",
    "latitude": 35.694704,
    "longitude": 139.4080884
  },
  {
    "id": 241,
    "meeting_name": "立川本部例会",
    "next_date": "2026-06-21",
    "start_time": "14:00",
    "end_time": "16:00",
    "recurrence": "第3日曜",
    "address": "〒190-0023 東京都立川市柴崎町２丁目１５−８",
    "prefecture": "東京都",
    "latitude": 35.694704,
    "longitude": 139.4080884
  },
  {
    "id": 21,
    "meeting_name": "京王家族会",
    "next_date": "2026-06-21",
    "start_time": "15:00",
    "end_time": "17:30",
    "recurrence": "第3日曜",
    "address": "〒182-0024 東京都調布市布田１丁目２９−４",
    "prefecture": "東京都",
    "latitude": 35.6533767,
    "longitude": 139.5453749
  },
  {
    "id": 463,
    "meeting_name": "京王家族会",
    "next_date": "2026-06-21",
    "start_time": "15:00",
    "end_time": "17:30",
    "recurrence": "第3日曜",
    "address": "〒182-0024 東京都調布市布田１丁目２９−４",
    "prefecture": "東京都",
    "latitude": 35.6508,
    "longitude": 139.5706
  },
  {
    "id": 102,
    "meeting_name": "オンライン例会 Zoom",
    "next_date": "2026-06-21",
    "start_time": "18:00",
    "end_time": "20:00",
    "recurrence": "第3日曜",
    "address": "",
    "prefecture": "神奈川県",
    "latitude": 35.4913535,
    "longitude": 139.284143
  },
  {
    "id": 1768,
    "meeting_name": "(日曜例会)",
    "next_date": "2026-06-21",
    "start_time": "18:00:00",
    "end_time": "19:30:00",
    "recurrence": "第3日曜",
    "address": "",
    "prefecture": "大阪府",
    "latitude": 34.814445,
    "longitude": 135.650833
  },
  {
    "id": 1753,
    "meeting_name": "庄内東",
    "next_date": "2026-06-21",
    "start_time": "19:00:00",
    "end_time": "20:45:00",
    "recurrence": "毎週日曜",
    "address": "",
    "prefecture": "大阪府",
    "latitude": 34.781288,
    "longitude": 135.469757
  },
  {
    "id": 1684,
    "meeting_name": "定例会 激励記念",
    "next_date": "2026-06-21",
    "start_time": "19:00:00",
    "end_time": "",
    "recurrence": "第3日曜",
    "address": "静岡県掛川市菊浜",
    "prefecture": "静岡県",
    "latitude": 34.663002,
    "longitude": 138.060226
  },
  {
    "id": 1699,
    "meeting_name": "伊豆東地区昼例会",
    "next_date": "2026-06-21",
    "start_time": "19:00:00",
    "end_time": "",
    "recurrence": "第3日曜",
    "address": "静岡県伊豆市",
    "prefecture": "静岡県",
    "latitude": 34.97657,
    "longitude": 138.946732
  },
  {
    "id": 21,
    "meeting_name": "ザ・体験談",
    "next_date": "2026-06-22",
    "start_time": "13:00",
    "end_time": "16:00",
    "recurrence": "第2・第4月曜",
    "address": "〒182-0024 東京都調布市布田１丁目２９−４",
    "prefecture": "東京都",
    "latitude": 35.6533767,
    "longitude": 139.5453749
  },
  {
    "id": 463,
    "meeting_name": "ザ・体験談",
    "next_date": "2026-06-22",
    "start_time": "13:00",
    "end_time": "16:00",
    "recurrence": "第2・第4月曜",
    "address": "〒182-0024 東京都調布市布田１丁目２９−４",
    "prefecture": "東京都",
    "latitude": 35.6508,
    "longitude": 139.5706
  },
  {
    "id": 1491,
    "meeting_name": "平尾台病院週例会",
    "next_date": "2026-06-22",
    "start_time": "13:00",
    "end_time": "14:00",
    "recurrence": "第1・第2・第3・第4・第5月曜",
    "address": "北九州市小倉南区大字木下５５５番地",
    "prefecture": "福岡県",
    "latitude": 33.772243,
    "longitude": 130.86116
  },
  {
    "id": 1032,
    "meeting_name": "北摂連合一時間例会",
    "next_date": "2026-06-22",
    "start_time": "15:00:00",
    "end_time": "16:00:00",
    "recurrence": "第1・第3・第4・第5月曜",
    "address": "大阪府高槻市奈佐原4丁目10-1",
    "prefecture": "大阪府",
    "latitude": 34.866047,
    "longitude": 135.574692
  },
  {
    "id": 1785,
    "meeting_name": "八千代例会",
    "next_date": "2026-06-22",
    "start_time": "18:30",
    "end_time": "20:30",
    "recurrence": "第4月曜",
    "address": "千葉県八千代市大和田２５０−１",
    "prefecture": "千葉県",
    "latitude": 35.713902,
    "longitude": 140.104538
  },
  {
    "id": 2,
    "meeting_name": "品川断酒会　家族会",
    "next_date": "2026-06-22",
    "start_time": "18:30",
    "end_time": "20:30",
    "recurrence": "第3・第4月曜",
    "address": "〒142-0043 東京都品川区二葉１丁目１−１−２",
    "prefecture": "東京都",
    "latitude": 35.6082279,
    "longitude": 139.7259931
  },
  {
    "id": 856,
    "meeting_name": "右京",
    "next_date": "2026-06-22",
    "start_time": "18:30:00",
    "end_time": "20:30:00",
    "recurrence": "毎週月曜",
    "address": "京都市中京区西ノ京新建町12番地の34",
    "prefecture": "京都府",
    "latitude": 35.008747,
    "longitude": 135.732849
  },
  {
    "id": 884,
    "meeting_name": "東山",
    "next_date": "2026-06-22",
    "start_time": "18:30:00",
    "end_time": "20:30:00",
    "recurrence": "第4月曜",
    "address": "京都府京都市東山区 梅林町５７６",
    "prefecture": "京都府",
    "latitude": 34.995182,
    "longitude": 135.775894
  },
  {
    "id": 894,
    "meeting_name": "葵",
    "next_date": "2026-06-22",
    "start_time": "18:30:00",
    "end_time": "20:30:00",
    "recurrence": "毎週月曜",
    "address": "京都府京都市左京区玉野玉岡町5",
    "prefecture": "京都府",
    "latitude": 35.048603,
    "longitude": 135.778534
  },
  {
    "id": 1716,
    "meeting_name": "東山",
    "next_date": "2026-06-22",
    "start_time": "18:30:00",
    "end_time": "20:30:00",
    "recurrence": "第4月曜",
    "address": "京都府東山区東大路松原下ル西側清水5丁目",
    "prefecture": "京都府",
    "latitude": 35.02124,
    "longitude": 135.755615
  },
  {
    "id": 1778,
    "meeting_name": "堺市泉北断酒会",
    "next_date": "2026-06-22",
    "start_time": "18:40:00",
    "end_time": "20:30:00",
    "recurrence": "毎週月曜",
    "address": "大阪府堺市南区桃山台1丁1-1",
    "prefecture": "大阪府",
    "latitude": 34.486473,
    "longitude": 135.4883073
  },
  {
    "id": 1780,
    "meeting_name": "堺市東断酒会",
    "next_date": "2026-06-22",
    "start_time": "18:40:00",
    "end_time": "20:40:00",
    "recurrence": "毎週月曜",
    "address": "大阪府堺市東区日置荘原寺町195-1",
    "prefecture": "大阪府",
    "latitude": 34.5381444,
    "longitude": 135.5344324
  },
  {
    "id": 898,
    "meeting_name": "長岡京",
    "next_date": "2026-06-22",
    "start_time": "18:50:00",
    "end_time": "20:50:00",
    "recurrence": "第1・第2・第3・第4月曜",
    "address": "京都府長岡京市開田3丁目10-16",
    "prefecture": "京都府",
    "latitude": 34.923702,
    "longitude": 135.693954
  },
  {
    "id": 160,
    "meeting_name": "鴻巣例会",
    "next_date": "2026-06-22",
    "start_time": "19:00",
    "end_time": "21:00",
    "recurrence": "第4月曜",
    "address": "鴻巣市赤見台1-15-5",
    "prefecture": "埼玉県",
    "latitude": 36.0863971,
    "longitude": 139.4787065
  },
  {
    "id": 9,
    "meeting_name": "杉並断酒会　懇談会",
    "next_date": "2026-06-22",
    "start_time": "19:00",
    "end_time": "20:30",
    "recurrence": "第1・第2・第4月曜",
    "address": "〒156-0052 東京都世田谷区経堂３丁目３７−１３",
    "prefecture": "東京都",
    "latitude": 35.651765,
    "longitude": 139.632168
  },
  {
    "id": 40,
    "meeting_name": "杉並断酒会　懇談会",
    "next_date": "2026-06-22",
    "start_time": "19:00",
    "end_time": "20:30",
    "recurrence": "第1・第2・第4月曜",
    "address": "",
    "prefecture": "東京都",
    "latitude": 35.7017573,
    "longitude": 139.6352933
  },
  {
    "id": 80,
    "meeting_name": "宮前例会　宮前区保健福祉センター１階　健診ホール",
    "next_date": "2026-06-22",
    "start_time": "19:00",
    "end_time": "20:45",
    "recurrence": "第4月曜",
    "address": "〒244-0003 神奈川県横浜市戸塚区戸塚町１２７ 横浜市戸塚センター",
    "prefecture": "神奈川県",
    "latitude": 35.3979389,
    "longitude": 139.5326778
  },
  {
    "id": 80,
    "meeting_name": "宮前例会",
    "next_date": "2026-06-22",
    "start_time": "19:00",
    "end_time": "20:45",
    "recurrence": "第4月曜",
    "address": "〒244-0003 神奈川県横浜市戸塚区戸塚町１２７ 横浜市戸塚センター",
    "prefecture": "神奈川県",
    "latitude": 35.3979389,
    "longitude": 139.5326778
  },
  {
    "id": 119,
    "meeting_name": "葉山例会",
    "next_date": "2026-06-22",
    "start_time": "19:00",
    "end_time": "20:00",
    "recurrence": "第1・第4月曜",
    "address": "〒240-0112 神奈川県三浦郡葉山町堀内２２２０ 葉山町福祉文化会館",
    "prefecture": "神奈川県",
    "latitude": 35.273019,
    "longitude": 139.587036
  },
  {
    "id": 1487,
    "meeting_name": "飯塚",
    "next_date": "2026-06-22",
    "start_time": "19:00",
    "end_time": "21:00",
    "recurrence": "第4月曜",
    "address": "福岡県飯塚市飯塚 14-67",
    "prefecture": "福岡県",
    "latitude": 33.636307,
    "longitude": 130.684494
  },
  {
    "id": 892,
    "meeting_name": "田辺",
    "next_date": "2026-06-22",
    "start_time": "19:00:00",
    "end_time": "21:00:00",
    "recurrence": "毎週月曜",
    "address": "京都府京田辺市興戸犬伏5-8",
    "prefecture": "京都府",
    "latitude": 34.813362,
    "longitude": 135.772141
  },
  {
    "id": 916,
    "meeting_name": "(例会)",
    "next_date": "2026-06-22",
    "start_time": "19:00:00",
    "end_time": "20:45:00",
    "recurrence": "毎週月曜",
    "address": "大阪府和泉市伯太町6丁目1-20",
    "prefecture": "大阪府",
    "latitude": 34.497471,
    "longitude": 135.432938
  },
  {
    "id": 1738,
    "meeting_name": "阿倍野断酒会",
    "next_date": "2026-06-22",
    "start_time": "19:00:00",
    "end_time": "20:45:00",
    "recurrence": "第1・第2・第3・第4月曜",
    "address": "",
    "prefecture": "大阪府",
    "latitude": 34.6410063,
    "longitude": 135.5079829
  },
  {
    "id": 1749,
    "meeting_name": "石橋",
    "next_date": "2026-06-22",
    "start_time": "19:00:00",
    "end_time": "21:00:00",
    "recurrence": "第4月曜",
    "address": "",
    "prefecture": "大阪府",
    "latitude": 34.806473,
    "longitude": 135.443985
  },
  {
    "id": 1754,
    "meeting_name": "中央",
    "next_date": "2026-06-22",
    "start_time": "19:00:00",
    "end_time": "21:00:00",
    "recurrence": "毎週月曜",
    "address": "",
    "prefecture": "大阪府",
    "latitude": 34.4376771,
    "longitude": 135.3562282
  },
  {
    "id": 1761,
    "meeting_name": "(例会)",
    "next_date": "2026-06-22",
    "start_time": "19:00:00",
    "end_time": "21:00:00",
    "recurrence": "毎週月曜",
    "address": "",
    "prefecture": "大阪府",
    "latitude": 34.574333,
    "longitude": 135.597504
  },
  {
    "id": 1664,
    "meeting_name": "袋井 例会",
    "next_date": "2026-06-22",
    "start_time": "19:00:00",
    "end_time": "",
    "recurrence": "毎週月曜",
    "address": "静岡県袋井市",
    "prefecture": "静岡県",
    "latitude": 34.750278,
    "longitude": 137.925003
  },
  {
    "id": 1664,
    "meeting_name": "袋井 例会(DVD)",
    "next_date": "2026-06-22",
    "start_time": "19:00:00",
    "end_time": "",
    "recurrence": "第4月曜",
    "address": "静岡県袋井市",
    "prefecture": "静岡県",
    "latitude": 34.750278,
    "longitude": 137.925003
  },
  {
    "id": 1683,
    "meeting_name": "昼例会",
    "next_date": "2026-06-22",
    "start_time": "19:00:00",
    "end_time": "",
    "recurrence": "第4・第5月曜",
    "address": "静岡県磐田市",
    "prefecture": "静岡県",
    "latitude": 34.717903,
    "longitude": 137.851532
  },
  {
    "id": 1717,
    "meeting_name": "北桑",
    "next_date": "2026-06-23",
    "start_time": "13:00:00",
    "end_time": "15:00:00",
    "recurrence": "毎週火曜",
    "address": "京都府右京区京北周山寺田1-1",
    "prefecture": "京都府",
    "latitude": 35.02124,
    "longitude": 135.755615
  },
  {
    "id": 1718,
    "meeting_name": "北桑",
    "next_date": "2026-06-23",
    "start_time": "13:00:00",
    "end_time": "15:00:00",
    "recurrence": "毎週火曜",
    "address": "京都府右京区京北下中町東石原8-2",
    "prefecture": "京都府",
    "latitude": 35.02124,
    "longitude": 135.755615
  },
  {
    "id": 6,
    "meeting_name": "ハートボックス",
    "next_date": "2026-06-23",
    "start_time": "13:30",
    "end_time": "15:30",
    "recurrence": "毎週火曜",
    "address": "〒108-0014 東京都港区芝５丁目１８−２ 都営芝五丁目アパート2号棟",
    "prefecture": "東京都",
    "latitude": 35.6482637,
    "longitude": 139.7483749
  },
  {
    "id": 1700,
    "meeting_name": "ｻﾎﾟｰﾄﾐｰﾃｨﾝｸﾞ(昼例会)",
    "next_date": "2026-06-23",
    "start_time": "13:30:00",
    "end_time": "15:00:00",
    "recurrence": "第4火曜",
    "address": "静岡県藤枝市藤枝",
    "prefecture": "静岡県",
    "latitude": 34.86721,
    "longitude": 138.252029
  },
  {
    "id": 870,
    "meeting_name": "みやび家族昼",
    "next_date": "2026-06-23",
    "start_time": "14:00:00",
    "end_time": "15:30:00",
    "recurrence": "第2・第4火曜",
    "address": "京都府京都市中京区壬生仙念町30",
    "prefecture": "京都府",
    "latitude": 35.003838,
    "longitude": 135.73555
  },
  {
    "id": 132,
    "meeting_name": "越谷例会",
    "next_date": "2026-06-23",
    "start_time": "18:30",
    "end_time": "20:30",
    "recurrence": "第2・第4火曜",
    "address": "越谷市越ヶ谷4-1-1",
    "prefecture": "埼玉県",
    "latitude": 35.8897351,
    "longitude": 139.7915
  },
  {
    "id": 1815,
    "meeting_name": "越谷例会",
    "next_date": "2026-06-23",
    "start_time": "18:30",
    "end_time": "20:30",
    "recurrence": "第2・第4火曜",
    "address": "埼玉県越谷市越ヶ谷4-1-1",
    "prefecture": "埼玉県",
    "latitude": 35.889099,
    "longitude": 139.791641
  },
  {
    "id": 5,
    "meeting_name": "江東断酒会　第2例会",
    "next_date": "2026-06-23",
    "start_time": "18:30",
    "end_time": "20:45",
    "recurrence": "第3・第4火曜",
    "address": "〒136-0072 東京都江東区大島４丁目５−１",
    "prefecture": "東京都",
    "latitude": 35.68903580000001,
    "longitude": 139.8269998
  },
  {
    "id": 10,
    "meeting_name": "江東断酒会　第2例会",
    "next_date": "2026-06-23",
    "start_time": "18:30",
    "end_time": "20:45",
    "recurrence": "第3・第4火曜",
    "address": "〒154-0004 東京都世田谷区太子堂１丁目１４−２０ 世田谷区立太子堂区民センター",
    "prefecture": "東京都",
    "latitude": 35.6428861,
    "longitude": 139.6736244
  },
  {
    "id": 820,
    "meeting_name": "中京",
    "next_date": "2026-06-23",
    "start_time": "18:30:00",
    "end_time": "20:30:00",
    "recurrence": "毎週火曜",
    "address": "京都府中京区壬生坊城町19-4",
    "prefecture": "京都府",
    "latitude": 35.02124,
    "longitude": 135.755615
  },
  {
    "id": 1767,
    "meeting_name": "西",
    "next_date": "2026-06-23",
    "start_time": "18:30:00",
    "end_time": "20:15:00",
    "recurrence": "毎週火曜",
    "address": "",
    "prefecture": "大阪府",
    "latitude": 34.766109,
    "longitude": 135.628052
  },
  {
    "id": 1779,
    "meeting_name": "堺市深井断酒会",
    "next_date": "2026-06-23",
    "start_time": "18:40:00",
    "end_time": "19:40:00",
    "recurrence": "毎週火曜",
    "address": "大阪府堺市中区深井沢町2470-7",
    "prefecture": "大阪府",
    "latitude": 34.5283524,
    "longitude": 135.4964851
  },
  {
    "id": 80,
    "meeting_name": "平塚例会",
    "next_date": "2026-06-23",
    "start_time": "18:45",
    "end_time": "20:30",
    "recurrence": "第2・第3・第4火曜",
    "address": "〒244-0003 神奈川県横浜市戸塚区戸塚町１２７ 横浜市戸塚センター",
    "prefecture": "神奈川県",
    "latitude": 35.3979389,
    "longitude": 139.5326778
  },
  {
    "id": 840,
    "meeting_name": "北山",
    "next_date": "2026-06-23",
    "start_time": "18:50:00",
    "end_time": "20:50:00",
    "recurrence": "毎週火曜",
    "address": "京都府京都市北区紫竹東高縄町1",
    "prefecture": "京都府",
    "latitude": 35.045666,
    "longitude": 135.75116
  },
  {
    "id": 1719,
    "meeting_name": "北山",
    "next_date": "2026-06-23",
    "start_time": "18:50:00",
    "end_time": "20:50:00",
    "recurrence": "毎週火曜",
    "address": "京都府北区大将軍鷹司町",
    "prefecture": "京都府",
    "latitude": 35.011669,
    "longitude": 135.768112
  },
  {
    "id": 157,
    "meeting_name": "合同例会",
    "next_date": "2026-06-23",
    "start_time": "19:00",
    "end_time": "21:00",
    "recurrence": "第4火曜",
    "address": "川口市並木2-8-2",
    "prefecture": "埼玉県",
    "latitude": 35.8168722,
    "longitude": 139.7089682
  },
  {
    "id": 157,
    "meeting_name": "合同例会/家族会",
    "next_date": "2026-06-23",
    "start_time": "19:00",
    "end_time": "21:00",
    "recurrence": "第4火曜",
    "address": "川口市並木2-8-2",
    "prefecture": "埼玉県",
    "latitude": 35.8168722,
    "longitude": 139.7089682
  },
  {
    "id": 165,
    "meeting_name": "深谷例会",
    "next_date": "2026-06-23",
    "start_time": "19:00",
    "end_time": "21:00",
    "recurrence": "第2・第4火曜",
    "address": "深谷市仲町20-2",
    "prefecture": "埼玉県",
    "latitude": 36.2006332,
    "longitude": 139.2842876
  },
  {
    "id": 1816,
    "meeting_name": "ふじみ野例会",
    "next_date": "2026-06-23",
    "start_time": "19:00",
    "end_time": "21:00",
    "recurrence": "第4火曜",
    "address": "埼玉県ふじみ野市福岡1-1-1",
    "prefecture": "埼玉県",
    "latitude": 35.879875,
    "longitude": 139.519592
  },
  {
    "id": 88,
    "meeting_name": "例会",
    "next_date": "2026-06-23",
    "start_time": "19:00",
    "end_time": "20:30",
    "recurrence": "毎週火曜",
    "address": "〒214-0014 神奈川県川崎市多摩区登戸１７７５−１",
    "prefecture": "神奈川県",
    "latitude": 35.6194623,
    "longitude": 139.562151
  },
  {
    "id": 878,
    "meeting_name": "大久保",
    "next_date": "2026-06-23",
    "start_time": "19:00:00",
    "end_time": "21:00:00",
    "recurrence": "毎週火曜",
    "address": "京都府宇治市広野町寺山17-403",
    "prefecture": "京都府",
    "latitude": 34.872871,
    "longitude": 135.78154
  },
  {
    "id": 972,
    "meeting_name": "(本部)",
    "next_date": "2026-06-23",
    "start_time": "19:00:00",
    "end_time": "20:45:00",
    "recurrence": "第3・第4火曜",
    "address": "大阪府岸和田市野田町1丁目5",
    "prefecture": "大阪府",
    "latitude": 34.458527,
    "longitude": 135.378815
  },
  {
    "id": 972,
    "meeting_name": "(例会)",
    "next_date": "2026-06-23",
    "start_time": "19:00:00",
    "end_time": "20:45:00",
    "recurrence": "毎週火曜",
    "address": "大阪府岸和田市野田町1丁目5",
    "prefecture": "大阪府",
    "latitude": 34.458527,
    "longitude": 135.378815
  },
  {
    "id": 1003,
    "meeting_name": "楠葉",
    "next_date": "2026-06-23",
    "start_time": "19:00:00",
    "end_time": "20:30:00",
    "recurrence": "毎週火曜",
    "address": "大阪府枚方市楠葉並木2-29-5",
    "prefecture": "大阪府",
    "latitude": 34.859627,
    "longitude": 135.681549
  },
  {
    "id": 1042,
    "meeting_name": "高槻市断酒会高槻支部例会",
    "next_date": "2026-06-23",
    "start_time": "19:00:00",
    "end_time": "21:00:00",
    "recurrence": "毎週火曜",
    "address": "大阪府高槻市真上町2丁目16-6",
    "prefecture": "大阪府",
    "latitude": 34.857933,
    "longitude": 135.608612
  },
  {
    "id": 1734,
    "meeting_name": "田辺",
    "next_date": "2026-06-23",
    "start_time": "19:00:00",
    "end_time": "20:45:00",
    "recurrence": "毎週火曜",
    "address": "",
    "prefecture": "大阪府",
    "latitude": 34.6124311,
    "longitude": 135.5098322
  },
  {
    "id": 1739,
    "meeting_name": "西淀川断酒会",
    "next_date": "2026-06-23",
    "start_time": "19:00:00",
    "end_time": "20:45:00",
    "recurrence": "第2・第4火曜",
    "address": "",
    "prefecture": "大阪府",
    "latitude": 34.7105494,
    "longitude": 135.4402388
  },
  {
    "id": 1759,
    "meeting_name": "(例会)",
    "next_date": "2026-06-23",
    "start_time": "19:00:00",
    "end_time": "20:45:00",
    "recurrence": "第2・第3・第4・第5火曜",
    "address": "",
    "prefecture": "大阪府",
    "latitude": 34.468765,
    "longitude": 135.575485
  },
  {
    "id": 1771,
    "meeting_name": "太平寺",
    "next_date": "2026-06-23",
    "start_time": "19:00:00",
    "end_time": "20:45:00",
    "recurrence": "毎週火曜",
    "address": "",
    "prefecture": "大阪府",
    "latitude": 34.679443,
    "longitude": 135.60083
  },
  {
    "id": 1666,
    "meeting_name": "定例会",
    "next_date": "2026-06-23",
    "start_time": "19:00:00",
    "end_time": "",
    "recurrence": "毎週火曜",
    "address": "静岡県湖西市",
    "prefecture": "静岡県",
    "latitude": 34.718472,
    "longitude": 137.531647
  },
  {
    "id": 1673,
    "meeting_name": "沼津小例会",
    "next_date": "2026-06-23",
    "start_time": "19:00:00",
    "end_time": "",
    "recurrence": "第4火曜",
    "address": "静岡県沼津市",
    "prefecture": "静岡県",
    "latitude": 35.095554,
    "longitude": 138.863617
  },
  {
    "id": 1705,
    "meeting_name": "地区例会",
    "next_date": "2026-06-23",
    "start_time": "19:00:00",
    "end_time": "",
    "recurrence": "第4・第5火曜",
    "address": "静岡県富士市",
    "prefecture": "静岡県",
    "latitude": 35.16135,
    "longitude": 138.676239
  },
  {
    "id": 1701,
    "meeting_name": "吉田例会",
    "next_date": "2026-06-23",
    "start_time": "19:30:00",
    "end_time": "",
    "recurrence": "第4火曜",
    "address": "静岡県牧之原市",
    "prefecture": "静岡県",
    "latitude": 34.740009,
    "longitude": 138.224655
  },
  {
    "id": 247,
    "meeting_name": "立川酒害相談",
    "next_date": "2026-06-24",
    "start_time": "13:00",
    "end_time": "16:00",
    "recurrence": "第2・第4水曜",
    "address": "〒190-0013 東京都立川市富士見町２丁目３６−４７",
    "prefecture": "東京都",
    "latitude": 35.7012732,
    "longitude": 139.4019165
  },
  {
    "id": 71,
    "meeting_name": "昼例会",
    "next_date": "2026-06-24",
    "start_time": "13:00",
    "end_time": "14:30",
    "recurrence": "毎週水曜",
    "address": "〒221-0835 神奈川県横浜市神奈川区鶴屋町２丁目２４−２",
    "prefecture": "神奈川県",
    "latitude": 35.4684095,
    "longitude": 139.6207449
  },
  {
    "id": 71,
    "meeting_name": "昼例会　担当　川崎",
    "next_date": "2026-06-24",
    "start_time": "13:00",
    "end_time": "14:30",
    "recurrence": "第4水曜",
    "address": "〒221-0835 神奈川県横浜市神奈川区鶴屋町２丁目２４−２",
    "prefecture": "神奈川県",
    "latitude": 35.4684095,
    "longitude": 139.6207449
  },
  {
    "id": 10,
    "meeting_name": "アメシスト　第2例会",
    "next_date": "2026-06-24",
    "start_time": "13:30",
    "end_time": "15:00",
    "recurrence": "第4水曜",
    "address": "〒154-0004 東京都世田谷区太子堂１丁目１４−２０ 世田谷区立太子堂区民センター",
    "prefecture": "東京都",
    "latitude": 35.6428861,
    "longitude": 139.6736244
  },
  {
    "id": 1462,
    "meeting_name": "松尾病院断酒学校",
    "next_date": "2026-06-24",
    "start_time": "13:30",
    "end_time": "15:30",
    "recurrence": "第1・第2・第3・第4・第5水曜",
    "address": "北九州市小倉南区葛原高松1丁目2-30",
    "prefecture": "福岡県",
    "latitude": 33.84528,
    "longitude": 130.924896
  },
  {
    "id": 870,
    "meeting_name": "本部昼",
    "next_date": "2026-06-24",
    "start_time": "14:00:00",
    "end_time": "16:00:00",
    "recurrence": "毎週水曜",
    "address": "京都府京都市中京区壬生仙念町30",
    "prefecture": "京都府",
    "latitude": 35.003838,
    "longitude": 135.73555
  },
  {
    "id": 1798,
    "meeting_name": "浦安例会",
    "next_date": "2026-06-24",
    "start_time": "18:30",
    "end_time": "20:30",
    "recurrence": "第2・第4水曜",
    "address": "千葉県浦安市猫実４丁目１８−１",
    "prefecture": "千葉県",
    "latitude": 35.663254,
    "longitude": 139.893509
  },
  {
    "id": 3,
    "meeting_name": "京王断酒会　調布第4懇談会",
    "next_date": "2026-06-24",
    "start_time": "18:30",
    "end_time": "20:30",
    "recurrence": "第4水曜",
    "address": "",
    "prefecture": "東京都",
    "latitude": 35.752978,
    "longitude": 139.734183
  },
  {
    "id": 18,
    "meeting_name": "シングルの集い　2",
    "next_date": "2026-06-24",
    "start_time": "18:30",
    "end_time": "20:30",
    "recurrence": "第2・第4水曜",
    "address": "",
    "prefecture": "東京都",
    "latitude": 35.6911512,
    "longitude": 139.7770967
  },
  {
    "id": 18,
    "meeting_name": "指針と規範勉強会",
    "next_date": "2026-06-24",
    "start_time": "18:30",
    "end_time": "20:30",
    "recurrence": "第3・第4水曜",
    "address": "",
    "prefecture": "東京都",
    "latitude": 35.6911512,
    "longitude": 139.7770967
  },
  {
    "id": 22,
    "meeting_name": "指針と規範勉強会",
    "next_date": "2026-06-24",
    "start_time": "18:30",
    "end_time": "20:30",
    "recurrence": "第3・第4水曜",
    "address": "中央区立十思スクエア 東京都中央区日本橋小伝馬町５−１ 中央区立十思スクエア等複合施設",
    "prefecture": "東京都",
    "latitude": 35.6906221,
    "longitude": 139.7771028
  },
  {
    "id": 411,
    "meeting_name": "京王断酒会　調布第4懇談会",
    "next_date": "2026-06-24",
    "start_time": "18:30",
    "end_time": "20:30",
    "recurrence": "第4水曜",
    "address": "",
    "prefecture": "東京都",
    "latitude": 35.6764225,
    "longitude": 139.650027
  },
  {
    "id": 1777,
    "meeting_name": "堺市金岡断酒会",
    "next_date": "2026-06-24",
    "start_time": "18:40:00",
    "end_time": "19:40:00",
    "recurrence": "毎週水曜",
    "address": "大阪府堺市北区新金岡町5丁1-4",
    "prefecture": "大阪府",
    "latitude": 34.5655445,
    "longitude": 135.5149807
  },
  {
    "id": 1781,
    "meeting_name": "堺市美原断酒会",
    "next_date": "2026-06-24",
    "start_time": "18:40:00",
    "end_time": "20:30:00",
    "recurrence": "毎週水曜",
    "address": "大阪府堺市美原区黒山167-9",
    "prefecture": "大阪府",
    "latitude": 34.538544,
    "longitude": 135.55986
  },
  {
    "id": 65,
    "meeting_name": "合同例会",
    "next_date": "2026-06-24",
    "start_time": "19:00",
    "end_time": "20:30",
    "recurrence": "第4水曜",
    "address": "〒338-0002 埼玉県さいたま市中央区下落合１７１２ 103 スカイレジデンシャルタワーズ ノースウィング301・401",
    "prefecture": "埼玉県",
    "latitude": 35.8847567,
    "longitude": 139.6367987
  },
  {
    "id": 69,
    "meeting_name": "合同例会・家族会",
    "next_date": "2026-06-24",
    "start_time": "19:00",
    "end_time": "21:00",
    "recurrence": "第4水曜",
    "address": "〒330-0063 埼玉県さいたま市東浦和区高砂１１−１",
    "prefecture": "埼玉県",
    "latitude": 35.8574923,
    "longitude": 139.6496729
  },
  {
    "id": 69,
    "meeting_name": "アメシスト例会",
    "next_date": "2026-06-24",
    "start_time": "19:00",
    "end_time": "21:00",
    "recurrence": "第4水曜",
    "address": "〒330-0063 埼玉県さいたま市東浦和区高砂１１−１",
    "prefecture": "埼玉県",
    "latitude": 35.8574923,
    "longitude": 139.6496729
  },
  {
    "id": 69,
    "meeting_name": "アメシスト例会",
    "next_date": "2026-06-24",
    "start_time": "19:00",
    "end_time": "20:30",
    "recurrence": "第4水曜",
    "address": "〒330-0063 埼玉県さいたま市東浦和区高砂１１−１",
    "prefecture": "埼玉県",
    "latitude": 35.8574923,
    "longitude": 139.6496729
  },
  {
    "id": 69,
    "meeting_name": "家族例会",
    "next_date": "2026-06-24",
    "start_time": "19:00",
    "end_time": "20:30",
    "recurrence": "第4水曜",
    "address": "〒330-0063 埼玉県さいたま市東浦和区高砂１１−１",
    "prefecture": "埼玉県",
    "latitude": 35.8574923,
    "longitude": 139.6496729
  },
  {
    "id": 69,
    "meeting_name": "合同例会",
    "next_date": "2026-06-24",
    "start_time": "19:00",
    "end_time": "20:30",
    "recurrence": "第4水曜",
    "address": "〒330-0063 埼玉県さいたま市東浦和区高砂１１−１",
    "prefecture": "埼玉県",
    "latitude": 35.8574923,
    "longitude": 139.6496729
  },
  {
    "id": 162,
    "meeting_name": "熊谷例会",
    "next_date": "2026-06-24",
    "start_time": "19:00",
    "end_time": "21:00",
    "recurrence": "第1・第2・第4水曜",
    "address": "〒360-0047 埼玉県熊谷市仲町19",
    "prefecture": "埼玉県",
    "latitude": 36.1475166,
    "longitude": 139.3829333
  },
  {
    "id": 1806,
    "meeting_name": "熊谷例会",
    "next_date": "2026-06-24",
    "start_time": "19:00",
    "end_time": "21:00",
    "recurrence": "第1・第2・第4水曜",
    "address": "埼玉県熊谷市仲町19",
    "prefecture": "埼玉県",
    "latitude": 36.147598,
    "longitude": 139.382675
  },
  {
    "id": 436,
    "meeting_name": "北部断酒会 大田原支部例会",
    "next_date": "2026-06-24",
    "start_time": "19:00",
    "end_time": "21:00",
    "recurrence": "毎週水曜",
    "address": "栃木県大田原市本町1-3",
    "prefecture": "栃木県",
    "latitude": 36.8711603,
    "longitude": 140.0171612
  },
  {
    "id": 438,
    "meeting_name": "北部断酒会 矢板支部例会",
    "next_date": "2026-06-24",
    "start_time": "19:00",
    "end_time": "21:00",
    "recurrence": "毎週水曜",
    "address": "栃木県矢板市本町5-4",
    "prefecture": "栃木県",
    "latitude": 36.8056007,
    "longitude": 139.9224503
  },
  {
    "id": 80,
    "meeting_name": "例会",
    "next_date": "2026-06-24",
    "start_time": "19:00",
    "end_time": "21:00",
    "recurrence": "第2・第4水曜",
    "address": "〒244-0003 神奈川県横浜市戸塚区戸塚町１２７ 横浜市戸塚センター",
    "prefecture": "神奈川県",
    "latitude": 35.3979389,
    "longitude": 139.5326778
  },
  {
    "id": 1442,
    "meeting_name": "大野城",
    "next_date": "2026-06-24",
    "start_time": "19:00",
    "end_time": "21:00",
    "recurrence": "第4水曜",
    "address": "福岡県大野城市曙町 2-3-2",
    "prefecture": "福岡県",
    "latitude": 33.53545,
    "longitude": 130.479828
  },
  {
    "id": 1468,
    "meeting_name": "久留米市",
    "next_date": "2026-06-24",
    "start_time": "19:00",
    "end_time": "21:00",
    "recurrence": "第4水曜",
    "address": "福岡県久留米市諏訪野町 1830-6",
    "prefecture": "福岡県",
    "latitude": 33.306896,
    "longitude": 130.521423
  },
  {
    "id": 950,
    "meeting_name": "此花断酒会",
    "next_date": "2026-06-24",
    "start_time": "19:00:00",
    "end_time": "20:45:00",
    "recurrence": "第4水曜",
    "address": "大阪府大阪市此花区西九条2丁目3-15",
    "prefecture": "大阪府",
    "latitude": 34.680748,
    "longitude": 135.466156
  },
  {
    "id": 991,
    "meeting_name": "布施西",
    "next_date": "2026-06-24",
    "start_time": "19:00:00",
    "end_time": "20:45:00",
    "recurrence": "毎週水曜",
    "address": "大阪府東大阪市足代新町14-17",
    "prefecture": "大阪府",
    "latitude": 34.664803,
    "longitude": 135.559204
  },
  {
    "id": 998,
    "meeting_name": "鴻池",
    "next_date": "2026-06-24",
    "start_time": "19:00:00",
    "end_time": "20:45:00",
    "recurrence": "毎週水曜",
    "address": "大阪府東大阪市鴻池町1丁目18-19",
    "prefecture": "大阪府",
    "latitude": 34.699844,
    "longitude": 135.605728
  },
  {
    "id": 1012,
    "meeting_name": "(例会)",
    "next_date": "2026-06-24",
    "start_time": "19:00:00",
    "end_time": "20:50:00",
    "recurrence": "毎週水曜",
    "address": "大阪府泉大津市東雲町9-15",
    "prefecture": "大阪府",
    "latitude": 34.50523,
    "longitude": 135.4104
  },
  {
    "id": 1013,
    "meeting_name": "(例会)",
    "next_date": "2026-06-24",
    "start_time": "19:00:00",
    "end_time": "20:45:00",
    "recurrence": "毎週水曜",
    "address": "大阪府箕面市箕面5丁目11-23",
    "prefecture": "大阪府",
    "latitude": 34.831169,
    "longitude": 135.471313
  },
  {
    "id": 1028,
    "meeting_name": "(例会)",
    "next_date": "2026-06-24",
    "start_time": "19:00:00",
    "end_time": "21:00:00",
    "recurrence": "第1・第2・第3・第4水曜",
    "address": "大阪府阪南市尾崎町1丁目18-15",
    "prefecture": "大阪府",
    "latitude": 34.361382,
    "longitude": 135.2388
  },
  {
    "id": 1736,
    "meeting_name": "平野北",
    "next_date": "2026-06-24",
    "start_time": "19:00:00",
    "end_time": "20:45:00",
    "recurrence": "毎週水曜",
    "address": "",
    "prefecture": "大阪府",
    "latitude": 34.620402,
    "longitude": 135.5556571
  },
  {
    "id": 1744,
    "meeting_name": "茨木市断酒会真砂支部例会",
    "next_date": "2026-06-24",
    "start_time": "19:00:00",
    "end_time": "20:30:00",
    "recurrence": "毎週水曜",
    "address": "",
    "prefecture": "大阪府",
    "latitude": 34.8138141,
    "longitude": 135.5778407
  },
  {
    "id": 1751,
    "meeting_name": "千里",
    "next_date": "2026-06-24",
    "start_time": "19:00:00",
    "end_time": "20:45:00",
    "recurrence": "第1・第2・第3・第4水曜",
    "address": "",
    "prefecture": "大阪府",
    "latitude": 34.791489,
    "longitude": 135.455917
  },
  {
    "id": 1762,
    "meeting_name": "(例会)",
    "next_date": "2026-06-24",
    "start_time": "19:00:00",
    "end_time": "21:00:00",
    "recurrence": "毎週水曜",
    "address": "",
    "prefecture": "大阪府",
    "latitude": 34.578274,
    "longitude": 135.559967
  },
  {
    "id": 1769,
    "meeting_name": "香里",
    "next_date": "2026-06-24",
    "start_time": "19:00:00",
    "end_time": "20:30:00",
    "recurrence": "毎週水曜",
    "address": "",
    "prefecture": "大阪府",
    "latitude": 34.814445,
    "longitude": 135.650833
  },
  {
    "id": 761,
    "meeting_name": "定例会",
    "next_date": "2026-06-24",
    "start_time": "19:00:00",
    "end_time": "",
    "recurrence": "第1・第3・第4水曜",
    "address": "浜松市浜北区小林１２７２－１",
    "prefecture": "静岡県",
    "latitude": 34.791546,
    "longitude": 137.783157
  },
  {
    "id": 1674,
    "meeting_name": "裾野小例会",
    "next_date": "2026-06-24",
    "start_time": "19:00:00",
    "end_time": "",
    "recurrence": "第2・第4水曜",
    "address": "静岡県沼津市",
    "prefecture": "静岡県",
    "latitude": 35.095554,
    "longitude": 138.863617
  },
  {
    "id": 44,
    "meeting_name": "MM豊洲",
    "next_date": "2026-06-24",
    "start_time": "19:30",
    "end_time": "21:30",
    "recurrence": "第3・第4水曜",
    "address": "〒135-0061 東京都江東区豊洲２丁目２−１８",
    "prefecture": "東京都",
    "latitude": 35.6542788,
    "longitude": 139.7952583
  },
  {
    "id": 1702,
    "meeting_name": "焼津藤枝合同ﾐｰﾃｨﾝｸﾞ(指針と規範の読み合わせ)",
    "next_date": "2026-06-24",
    "start_time": "19:30:00",
    "end_time": "",
    "recurrence": "第4水曜",
    "address": "静岡県焼津市大村",
    "prefecture": "静岡県",
    "latitude": 34.874371,
    "longitude": 138.308548
  },
  {
    "id": 65,
    "meeting_name": "こころの広場",
    "next_date": "2026-06-25",
    "start_time": "13:00",
    "end_time": "15:00",
    "recurrence": "毎週木曜",
    "address": "〒338-0002 埼玉県さいたま市中央区下落合１７１２ 103 スカイレジデンシャルタワーズ ノースウィング301・401",
    "prefecture": "埼玉県",
    "latitude": 35.8847567,
    "longitude": 139.6367987
  },
  {
    "id": 65,
    "meeting_name": "本部例会 こころの広場",
    "next_date": "2026-06-25",
    "start_time": "13:00",
    "end_time": "15:30",
    "recurrence": "毎週木曜",
    "address": "〒338-0002 埼玉県さいたま市中央区下落合１７１２ 103 スカイレジデンシャルタワーズ ノースウィング301・401",
    "prefecture": "埼玉県",
    "latitude": 35.8847567,
    "longitude": 139.6367987
  },
  {
    "id": 1493,
    "meeting_name": "新門司病院週例会",
    "next_date": "2026-06-25",
    "start_time": "13:45",
    "end_time": "15:45",
    "recurrence": "第1・第2・第3・第4・第5木曜",
    "address": "北九州市門司区猿喰615",
    "prefecture": "福岡県",
    "latitude": 33.896404,
    "longitude": 130.97551
  },
  {
    "id": 1722,
    "meeting_name": "船井",
    "next_date": "2026-06-25",
    "start_time": "14:00:00",
    "end_time": "15:30:00",
    "recurrence": "第4木曜",
    "address": "京都府南丹市八木町西田金井畠9",
    "prefecture": "京都府",
    "latitude": 35.02124,
    "longitude": 135.755615
  },
  {
    "id": 256,
    "meeting_name": "船橋例会",
    "next_date": "2026-06-25",
    "start_time": "18:30",
    "end_time": "20:30",
    "recurrence": "第1・第4木曜",
    "address": "〒274-0825 千葉県船橋市前原西２丁目２１−２１",
    "prefecture": "千葉県",
    "latitude": 35.6927812,
    "longitude": 140.0227357
  },
  {
    "id": 6,
    "meeting_name": "港断酒会　懇談会",
    "next_date": "2026-06-25",
    "start_time": "18:30",
    "end_time": "20:00",
    "recurrence": "第4木曜",
    "address": "〒108-0014 東京都港区芝５丁目１８−２ 都営芝五丁目アパート2号棟",
    "prefecture": "東京都",
    "latitude": 35.6482637,
    "longitude": 139.7483749
  },
  {
    "id": 9,
    "meeting_name": "墨田断酒会　第2例会",
    "next_date": "2026-06-25",
    "start_time": "18:30",
    "end_time": "20:30",
    "recurrence": "第4木曜",
    "address": "〒156-0052 東京都世田谷区経堂３丁目３７−１３",
    "prefecture": "東京都",
    "latitude": 35.651765,
    "longitude": 139.632168
  },
  {
    "id": 10,
    "meeting_name": "世田谷断酒会　五心会",
    "next_date": "2026-06-25",
    "start_time": "18:30",
    "end_time": "20:30",
    "recurrence": "第3・第4木曜",
    "address": "〒154-0004 東京都世田谷区太子堂１丁目１４−２０ 世田谷区立太子堂区民センター",
    "prefecture": "東京都",
    "latitude": 35.6428861,
    "longitude": 139.6736244
  },
  {
    "id": 23,
    "meeting_name": "墨田断酒会　第2例会",
    "next_date": "2026-06-25",
    "start_time": "18:30",
    "end_time": "20:30",
    "recurrence": "第4木曜",
    "address": "〒130-0026 東京都墨田区両国２丁目２０−１２ ライオンズステーションプラザ両国 １０１",
    "prefecture": "東京都",
    "latitude": 35.6953018,
    "longitude": 139.7926487
  },
  {
    "id": 1723,
    "meeting_name": "洛北",
    "next_date": "2026-06-25",
    "start_time": "18:30:00",
    "end_time": "20:00:00",
    "recurrence": "毎週木曜",
    "address": "京都府北区紫野西船岡町2",
    "prefecture": "京都府",
    "latitude": 35.02124,
    "longitude": 135.755615
  },
  {
    "id": 1767,
    "meeting_name": "香里園",
    "next_date": "2026-06-25",
    "start_time": "18:30:00",
    "end_time": "20:15:00",
    "recurrence": "毎週木曜",
    "address": "",
    "prefecture": "大阪府",
    "latitude": 34.766109,
    "longitude": 135.628052
  },
  {
    "id": 1721,
    "meeting_name": "山科",
    "next_date": "2026-06-25",
    "start_time": "18:40:00",
    "end_time": "20:40:00",
    "recurrence": "毎週木曜",
    "address": "京都府山科区竹鼻四丁野町34-1",
    "prefecture": "京都府",
    "latitude": 35.011669,
    "longitude": 135.768112
  },
  {
    "id": 151,
    "meeting_name": "川口例会",
    "next_date": "2026-06-25",
    "start_time": "19:00",
    "end_time": "21:00",
    "recurrence": "第2・第4木曜",
    "address": "川口市幸町３－８－３３",
    "prefecture": "埼玉県",
    "latitude": 35.8054912,
    "longitude": 139.7178743
  },
  {
    "id": 244,
    "meeting_name": "八王子例会",
    "next_date": "2026-06-25",
    "start_time": "19:00",
    "end_time": "21:00",
    "recurrence": "第4・第5木曜",
    "address": "〒192-0082 東京都八王子市東町５−６",
    "prefecture": "東京都",
    "latitude": 35.658532,
    "longitude": 139.3399542
  },
  {
    "id": 434,
    "meeting_name": "宇都宮断酒会 中央支部例会",
    "next_date": "2026-06-25",
    "start_time": "19:00",
    "end_time": "21:00",
    "recurrence": "毎週木曜",
    "address": "栃木県宇都宮市中央1-11-13",
    "prefecture": "栃木県",
    "latitude": 36.5577759,
    "longitude": 139.8839292
  },
  {
    "id": 441,
    "meeting_name": "西部断酒会 鹿沼支部例会",
    "next_date": "2026-06-25",
    "start_time": "19:00",
    "end_time": "21:00",
    "recurrence": "毎週木曜",
    "address": "栃木県鹿沼市文化橋1982-18",
    "prefecture": "栃木県",
    "latitude": 36.5697049,
    "longitude": 139.7515117
  },
  {
    "id": 1725,
    "meeting_name": "南伏見",
    "next_date": "2026-06-25",
    "start_time": "19:00:00",
    "end_time": "20:45:00",
    "recurrence": "毎週木曜",
    "address": "京都府伏見区鷹匠町39-2",
    "prefecture": "京都府",
    "latitude": 35.02124,
    "longitude": 135.755615
  },
  {
    "id": 953,
    "meeting_name": "淀川東",
    "next_date": "2026-06-25",
    "start_time": "19:00:00",
    "end_time": "20:45:00",
    "recurrence": "第2・第4・第5木曜",
    "address": "大阪府大阪市淀川区宮原1丁目18-14",
    "prefecture": "大阪府",
    "latitude": 34.737923,
    "longitude": 135.499832
  },
  {
    "id": 1031,
    "meeting_name": "高槻市断酒会富田支部例会",
    "next_date": "2026-06-25",
    "start_time": "19:00:00",
    "end_time": "21:00:00",
    "recurrence": "毎週木曜",
    "address": "大阪府高槻市富田町5丁目17-1",
    "prefecture": "大阪府",
    "latitude": 34.830853,
    "longitude": 135.595123
  },
  {
    "id": 1737,
    "meeting_name": "東成断酒会",
    "next_date": "2026-06-25",
    "start_time": "19:00:00",
    "end_time": "20:45:00",
    "recurrence": "毎週木曜",
    "address": "",
    "prefecture": "大阪府",
    "latitude": 34.6680639,
    "longitude": 135.5387683
  },
  {
    "id": 1741,
    "meeting_name": "西成断酒会",
    "next_date": "2026-06-25",
    "start_time": "19:00:00",
    "end_time": "20:45:00",
    "recurrence": "毎週木曜",
    "address": "",
    "prefecture": "大阪府",
    "latitude": 34.6344986,
    "longitude": 135.4923744
  },
  {
    "id": 1746,
    "meeting_name": "吹田市断酒会南千里支部例会",
    "next_date": "2026-06-25",
    "start_time": "19:00:00",
    "end_time": "20:30:00",
    "recurrence": "第2・第4木曜",
    "address": "",
    "prefecture": "大阪府",
    "latitude": 34.7929658,
    "longitude": 135.5086081
  },
  {
    "id": 1750,
    "meeting_name": "豊中",
    "next_date": "2026-06-25",
    "start_time": "19:00:00",
    "end_time": "20:45:00",
    "recurrence": "毎週木曜",
    "address": "",
    "prefecture": "大阪府",
    "latitude": 34.7932371,
    "longitude": 135.4473333
  },
  {
    "id": 1754,
    "meeting_name": "貝塚",
    "next_date": "2026-06-25",
    "start_time": "19:00:00",
    "end_time": "21:00:00",
    "recurrence": "毎週木曜",
    "address": "",
    "prefecture": "大阪府",
    "latitude": 34.4376771,
    "longitude": 135.3562282
  },
  {
    "id": 1755,
    "meeting_name": "(例会)",
    "next_date": "2026-06-25",
    "start_time": "19:00:00",
    "end_time": "20:45:00",
    "recurrence": "第1・第2・第3・第4木曜",
    "address": "",
    "prefecture": "大阪府",
    "latitude": 34.520557,
    "longitude": 135.442215
  },
  {
    "id": 1772,
    "meeting_name": "若江",
    "next_date": "2026-06-25",
    "start_time": "19:00:00",
    "end_time": "20:45:00",
    "recurrence": "毎週木曜",
    "address": "",
    "prefecture": "大阪府",
    "latitude": 34.679443,
    "longitude": 135.60083
  },
  {
    "id": 1667,
    "meeting_name": "森 例会",
    "next_date": "2026-06-25",
    "start_time": "19:00:00",
    "end_time": "",
    "recurrence": "毎週木曜",
    "address": "静岡県森町",
    "prefecture": "静岡県",
    "latitude": 34.83559,
    "longitude": 137.927063
  },
  {
    "id": 1667,
    "meeting_name": "森 例会･DVD鑑賞",
    "next_date": "2026-06-25",
    "start_time": "19:00:00",
    "end_time": "",
    "recurrence": "第4木曜",
    "address": "静岡県森町",
    "prefecture": "静岡県",
    "latitude": 34.83559,
    "longitude": 137.927063
  },
  {
    "id": 1678,
    "meeting_name": "小例会･家族会",
    "next_date": "2026-06-25",
    "start_time": "19:00:00",
    "end_time": "",
    "recurrence": "第4木曜",
    "address": "静岡県静岡市清水区",
    "prefecture": "静岡県",
    "latitude": 35.015835,
    "longitude": 138.489716
  },
  {
    "id": 1682,
    "meeting_name": "定例会",
    "next_date": "2026-06-25",
    "start_time": "19:00:00",
    "end_time": "",
    "recurrence": "第4木曜",
    "address": "静岡県島田市",
    "prefecture": "静岡県",
    "latitude": 34.836121,
    "longitude": 138.176941
  },
  {
    "id": 1703,
    "meeting_name": "中伊豆地区例会",
    "next_date": "2026-06-25",
    "start_time": "19:00:00",
    "end_time": "",
    "recurrence": "第4木曜",
    "address": "静岡県伊豆市",
    "prefecture": "静岡県",
    "latitude": 34.97657,
    "longitude": 138.946732
  },
  {
    "id": 1732,
    "meeting_name": "おはよう例会",
    "next_date": "2026-06-26",
    "start_time": "10:00:00",
    "end_time": "11:30:00",
    "recurrence": "毎週金曜",
    "address": "",
    "prefecture": "大阪府",
    "latitude": 34.5979975,
    "longitude": 135.5291007
  },
  {
    "id": 71,
    "meeting_name": "横浜酒害相談：１２階セルフヘルプ第２相談室",
    "next_date": "2026-06-26",
    "start_time": "13:00",
    "end_time": "15:00",
    "recurrence": "第2・第3・第4金曜",
    "address": "〒221-0835 神奈川県横浜市神奈川区鶴屋町２丁目２４−２",
    "prefecture": "神奈川県",
    "latitude": 35.4684095,
    "longitude": 139.6207449
  },
  {
    "id": 1747,
    "meeting_name": "吹田市断酒会昼例会",
    "next_date": "2026-06-26",
    "start_time": "13:30:00",
    "end_time": "15:30:00",
    "recurrence": "第4金曜",
    "address": "",
    "prefecture": "大阪府",
    "latitude": 34.7623636,
    "longitude": 135.5275431
  },
  {
    "id": 1665,
    "meeting_name": "昼例会",
    "next_date": "2026-06-26",
    "start_time": "13:30:00",
    "end_time": "15:00:00",
    "recurrence": "第3・第4金曜",
    "address": "静岡県牧之原市牧之原",
    "prefecture": "静岡県",
    "latitude": 34.762508,
    "longitude": 138.13562
  },
  {
    "id": 9,
    "meeting_name": "福生例会",
    "next_date": "2026-06-26",
    "start_time": "14:00",
    "end_time": "16:00",
    "recurrence": "第4金曜",
    "address": "〒156-0052 東京都世田谷区経堂３丁目３７−１３",
    "prefecture": "東京都",
    "latitude": 35.651765,
    "longitude": 139.632168
  },
  {
    "id": 252,
    "meeting_name": "福生例会",
    "next_date": "2026-06-26",
    "start_time": "14:00",
    "end_time": "16:00",
    "recurrence": "第4金曜",
    "address": "〒197-0011 東京都福生市福生２４５５",
    "prefecture": "東京都",
    "latitude": 35.7339173,
    "longitude": 139.3378396
  },
  {
    "id": 1041,
    "meeting_name": "高槻市断酒会金曜例会",
    "next_date": "2026-06-26",
    "start_time": "14:30:00",
    "end_time": "16:00:00",
    "recurrence": "毎週金曜",
    "address": "大阪府高槻市安満北の町18-1",
    "prefecture": "大阪府",
    "latitude": 34.862976,
    "longitude": 135.629181
  },
  {
    "id": 1726,
    "meeting_name": "洛南",
    "next_date": "2026-06-26",
    "start_time": "18:30:00",
    "end_time": "20:30:00",
    "recurrence": "毎週金曜",
    "address": "京都府南区吉祥院三ノ宮西町  松尾神社北側(⛩が目印)",
    "prefecture": "京都府",
    "latitude": 35.02124,
    "longitude": 135.755615
  },
  {
    "id": 1727,
    "meeting_name": "下京",
    "next_date": "2026-06-26",
    "start_time": "18:30:00",
    "end_time": "20:00:00",
    "recurrence": "毎週金曜",
    "address": "京都府下京区上之町38",
    "prefecture": "京都府",
    "latitude": 35.02124,
    "longitude": 135.755615
  },
  {
    "id": 860,
    "meeting_name": "左京",
    "next_date": "2026-06-26",
    "start_time": "18:40:00",
    "end_time": "20:40:00",
    "recurrence": "毎週金曜",
    "address": "京都市左京区田中玄京町149",
    "prefecture": "京都府",
    "latitude": 35.032257,
    "longitude": 135.776489
  },
  {
    "id": 1775,
    "meeting_name": "堺市鳳断酒会",
    "next_date": "2026-06-26",
    "start_time": "18:40:00",
    "end_time": "20:40:00",
    "recurrence": "毎週金曜",
    "address": "大阪府堺市西区鳳東町6丁600",
    "prefecture": "大阪府",
    "latitude": 34.5349992,
    "longitude": 135.4619186
  },
  {
    "id": 1776,
    "meeting_name": "堺市宿院断酒会",
    "next_date": "2026-06-26",
    "start_time": "18:40:00",
    "end_time": "20:40:00",
    "recurrence": "毎週金曜",
    "address": "大阪府堺市堺区南瓦町3-1",
    "prefecture": "大阪府",
    "latitude": 34.573708,
    "longitude": 135.4802979
  },
  {
    "id": 69,
    "meeting_name": "シングル例会",
    "next_date": "2026-06-26",
    "start_time": "19:00",
    "end_time": "21:00",
    "recurrence": "第4金曜",
    "address": "〒330-0063 埼玉県さいたま市東浦和区高砂１１−１",
    "prefecture": "埼玉県",
    "latitude": 35.8574923,
    "longitude": 139.6496729
  },
  {
    "id": 134,
    "meeting_name": "シングル例会",
    "next_date": "2026-06-26",
    "start_time": "19:00",
    "end_time": "21:00",
    "recurrence": "第4金曜",
    "address": "さいたま市南区別所7-20-1 サウスピア8F",
    "prefecture": "埼玉県",
    "latitude": 35.8452444,
    "longitude": 139.6454735
  },
  {
    "id": 9,
    "meeting_name": "連合合同例会",
    "next_date": "2026-06-26",
    "start_time": "19:00",
    "end_time": "21:00",
    "recurrence": "第4・第5金曜",
    "address": "〒156-0052 東京都世田谷区経堂３丁目３７−１３",
    "prefecture": "東京都",
    "latitude": 35.651765,
    "longitude": 139.632168
  },
  {
    "id": 437,
    "meeting_name": "北部断酒会 那須塩原支部例会",
    "next_date": "2026-06-26",
    "start_time": "19:00",
    "end_time": "21:00",
    "recurrence": "毎週金曜",
    "address": "栃木県那須塩原市太夫塚1-194-78",
    "prefecture": "栃木県",
    "latitude": 36.8847532,
    "longitude": 139.9767548
  },
  {
    "id": 88,
    "meeting_name": "多摩市民館例会　多摩市民館　第５会議室",
    "next_date": "2026-06-26",
    "start_time": "19:00",
    "end_time": "20:45",
    "recurrence": "第4金曜",
    "address": "〒214-0014 神奈川県川崎市多摩区登戸１７７５−１",
    "prefecture": "神奈川県",
    "latitude": 35.6194623,
    "longitude": 139.562151
  },
  {
    "id": 88,
    "meeting_name": "多摩市民館例会",
    "next_date": "2026-06-26",
    "start_time": "19:00",
    "end_time": "20:45",
    "recurrence": "第4金曜",
    "address": "〒214-0014 神奈川県川崎市多摩区登戸１７７５−１",
    "prefecture": "神奈川県",
    "latitude": 35.6194623,
    "longitude": 139.562151
  },
  {
    "id": 110,
    "meeting_name": "本部例会",
    "next_date": "2026-06-26",
    "start_time": "19:00",
    "end_time": "20:15",
    "recurrence": "第2・第4金曜",
    "address": "〒238-0046 神奈川県横須賀市西逸見町１丁目１−３８−１１",
    "prefecture": "神奈川県",
    "latitude": 35.2842547,
    "longitude": 139.6521476
  },
  {
    "id": 858,
    "meeting_name": "宇治",
    "next_date": "2026-06-26",
    "start_time": "19:00:00",
    "end_time": "21:00:00",
    "recurrence": "毎週金曜",
    "address": "京都府宇治市木幡内畑３４−７",
    "prefecture": "京都府",
    "latitude": 34.924786,
    "longitude": 135.795471
  },
  {
    "id": 905,
    "meeting_name": "東",
    "next_date": "2026-06-26",
    "start_time": "19:00:00",
    "end_time": "20:45:00",
    "recurrence": "毎週金曜",
    "address": "大阪府八尾市山本町1丁目8-11",
    "prefecture": "大阪府",
    "latitude": 34.628197,
    "longitude": 135.62117
  },
  {
    "id": 991,
    "meeting_name": "布施",
    "next_date": "2026-06-26",
    "start_time": "19:00:00",
    "end_time": "20:45:00",
    "recurrence": "毎週金曜",
    "address": "大阪府東大阪市足代新町14-17",
    "prefecture": "大阪府",
    "latitude": 34.664803,
    "longitude": 135.559204
  },
  {
    "id": 1004,
    "meeting_name": "長尾",
    "next_date": "2026-06-26",
    "start_time": "19:00:00",
    "end_time": "20:30:00",
    "recurrence": "毎週金曜",
    "address": "大阪府枚方市長尾元町1-35-1",
    "prefecture": "大阪府",
    "latitude": 34.823738,
    "longitude": 135.708771
  },
  {
    "id": 1735,
    "meeting_name": "平野南",
    "next_date": "2026-06-26",
    "start_time": "19:00:00",
    "end_time": "20:45:00",
    "recurrence": "毎週金曜",
    "address": "",
    "prefecture": "大阪府",
    "latitude": 34.608862,
    "longitude": 135.5672921
  },
  {
    "id": 1742,
    "meeting_name": "住吉断酒会",
    "next_date": "2026-06-26",
    "start_time": "19:00:00",
    "end_time": "20:45:00",
    "recurrence": "第1・第2・第3・第4金曜",
    "address": "",
    "prefecture": "大阪府",
    "latitude": 34.604348,
    "longitude": 135.4979169
  },
  {
    "id": 1743,
    "meeting_name": "中央断酒会",
    "next_date": "2026-06-26",
    "start_time": "19:00:00",
    "end_time": "20:45:00",
    "recurrence": "第2・第3・第4・第5金曜",
    "address": "",
    "prefecture": "大阪府",
    "latitude": 34.6840677,
    "longitude": 135.5066391
  },
  {
    "id": 1752,
    "meeting_name": "蛍池",
    "next_date": "2026-06-26",
    "start_time": "19:00:00",
    "end_time": "20:45:00",
    "recurrence": "第1・第2・第3・第4金曜",
    "address": "",
    "prefecture": "大阪府",
    "latitude": 34.792557,
    "longitude": 135.445862
  },
  {
    "id": 1757,
    "meeting_name": "(例会)",
    "next_date": "2026-06-26",
    "start_time": "19:00:00",
    "end_time": "20:45:00",
    "recurrence": "毎週金曜",
    "address": "",
    "prefecture": "大阪府",
    "latitude": 34.503662,
    "longitude": 135.555695
  },
  {
    "id": 1760,
    "meeting_name": "(例会)",
    "next_date": "2026-06-26",
    "start_time": "19:00:00",
    "end_time": "21:00:00",
    "recurrence": "毎週金曜",
    "address": "",
    "prefecture": "大阪府",
    "latitude": 34.49947,
    "longitude": 135.597229
  },
  {
    "id": 1774,
    "meeting_name": "枚岡",
    "next_date": "2026-06-26",
    "start_time": "19:00:00",
    "end_time": "20:40:00",
    "recurrence": "第1・第2・第3・第4金曜",
    "address": "",
    "prefecture": "大阪府",
    "latitude": 34.679443,
    "longitude": 135.60083
  },
  {
    "id": 1679,
    "meeting_name": "定例会",
    "next_date": "2026-06-26",
    "start_time": "19:00:00",
    "end_time": "",
    "recurrence": "第1・第4金曜",
    "address": "静岡県三島市中",
    "prefecture": "静岡県",
    "latitude": 35.105907,
    "longitude": 138.931137
  },
  {
    "id": 1728,
    "meeting_name": "伏見",
    "next_date": "2026-06-26",
    "start_time": "19:15:00",
    "end_time": "20:45:00",
    "recurrence": "毎週金曜",
    "address": "京都府伏見区深草加賀屋敷6-2",
    "prefecture": "京都府",
    "latitude": 35.02124,
    "longitude": 135.755615
  },
  {
    "id": 1794,
    "meeting_name": "わかしお一泊研修",
    "next_date": "2026-06-27",
    "start_time": "10:00",
    "end_time": "12:00",
    "recurrence": "第3・第4土曜",
    "address": "千葉県柏市泉１２４０−１",
    "prefecture": "千葉県",
    "latitude": 35.84277,
    "longitude": 140.056976
  },
  {
    "id": 400,
    "meeting_name": "みくるべ病院院内例会",
    "next_date": "2026-06-27",
    "start_time": "10:10",
    "end_time": "11:10",
    "recurrence": "第4土曜",
    "address": "神奈川県秦野市三廻部1678",
    "prefecture": "神奈川県",
    "latitude": 35.4048412456351,
    "longitude": 139.1569433762054
  },
  {
    "id": 400,
    "meeting_name": "みくるべ病院院内例会",
    "next_date": "2026-06-27",
    "start_time": "10:15",
    "end_time": "11:15",
    "recurrence": "第4土曜",
    "address": "神奈川県秦野市三廻部1678",
    "prefecture": "神奈川県",
    "latitude": 35.4048412456351,
    "longitude": 139.1569433762054
  },
  {
    "id": 400,
    "meeting_name": "みくるべ病院院内例会",
    "next_date": "2026-06-27",
    "start_time": "10:15",
    "end_time": "11:15",
    "recurrence": "第4土曜",
    "address": "神奈川県秦野市三廻部1678",
    "prefecture": "神奈川県",
    "latitude": 35.4048412456351,
    "longitude": 139.1569433762054
  },
  {
    "id": 140,
    "meeting_name": "西部昼例会",
    "next_date": "2026-06-27",
    "start_time": "13:00",
    "end_time": "15:00",
    "recurrence": "第4土曜",
    "address": "ふじみ野市福岡1-2-5",
    "prefecture": "埼玉県",
    "latitude": 35.8780612,
    "longitude": 139.5218928
  },
  {
    "id": 1816,
    "meeting_name": "埼玉西部昼例会",
    "next_date": "2026-06-27",
    "start_time": "13:00",
    "end_time": "15:00",
    "recurrence": "第4・第5土曜",
    "address": "埼玉県ふじみ野市福岡1-1-1",
    "prefecture": "埼玉県",
    "latitude": 35.879875,
    "longitude": 139.519592
  },
  {
    "id": 71,
    "meeting_name": "アメシスト例会",
    "next_date": "2026-06-27",
    "start_time": "13:00",
    "end_time": "15:00",
    "recurrence": "第4・第5土曜",
    "address": "〒221-0835 神奈川県横浜市神奈川区鶴屋町２丁目２４−２",
    "prefecture": "神奈川県",
    "latitude": 35.4684095,
    "longitude": 139.6207449
  },
  {
    "id": 1508,
    "meeting_name": "福岡アメシスト",
    "next_date": "2026-06-27",
    "start_time": "13:00",
    "end_time": "15:00",
    "recurrence": "毎週土曜",
    "address": "福岡県糟屋郡粕屋町駕与丁１丁目６−１",
    "prefecture": "福岡県",
    "latitude": 33.609837,
    "longitude": 130.479294
  },
  {
    "id": 29,
    "meeting_name": "西武断酒会　例会",
    "next_date": "2026-06-27",
    "start_time": "14:00",
    "end_time": "16:00",
    "recurrence": "第4土曜",
    "address": "〒180-0013 東京都武蔵野市西久保１丁目２３−７ 西久保コミュニティセンター",
    "prefecture": "東京都",
    "latitude": 35.706036,
    "longitude": 139.5568566
  },
  {
    "id": 590,
    "meeting_name": "西武断酒会　例会",
    "next_date": "2026-06-27",
    "start_time": "14:00",
    "end_time": "16:00",
    "recurrence": "第4土曜",
    "address": "東京都武蔵野市西久保１丁目２３−",
    "prefecture": "東京都",
    "latitude": 35.705982,
    "longitude": 139.556717
  },
  {
    "id": 1432,
    "meeting_name": "北九州地区協議会昼例会",
    "next_date": "2026-06-27",
    "start_time": "14:00",
    "end_time": "16:00",
    "recurrence": "第4土曜",
    "address": "福岡県遠賀郡水巻町頃末南３丁目１１−１",
    "prefecture": "福岡県",
    "latitude": 33.852673,
    "longitude": 130.698196
  },
  {
    "id": 1471,
    "meeting_name": "糸島（昼例会）",
    "next_date": "2026-06-27",
    "start_time": "14:00",
    "end_time": "16:00",
    "recurrence": "第4土曜",
    "address": "福岡県糸島市潤 1-22-1",
    "prefecture": "福岡県",
    "latitude": 33.55777,
    "longitude": 130.218674
  },
  {
    "id": 1733,
    "meeting_name": "こんにちは例会",
    "next_date": "2026-06-27",
    "start_time": "14:00:00",
    "end_time": "15:45:00",
    "recurrence": "第2・第4土曜",
    "address": "",
    "prefecture": "大阪府",
    "latitude": 34.612355,
    "longitude": 135.5042684
  },
  {
    "id": 259,
    "meeting_name": "野田例会",
    "next_date": "2026-06-27",
    "start_time": "18:30",
    "end_time": "20:30",
    "recurrence": "第3・第4土曜",
    "address": "〒278-0003 千葉県野田市鶴奉5ー1",
    "prefecture": "千葉県",
    "latitude": 35.9566619,
    "longitude": 139.8731574
  },
  {
    "id": 1784,
    "meeting_name": "やちまた例会",
    "next_date": "2026-06-27",
    "start_time": "18:30",
    "end_time": "20:30",
    "recurrence": "第3・第4土曜",
    "address": "千葉県八街市八街ほ−７９６−１",
    "prefecture": "千葉県",
    "latitude": 35.657684,
    "longitude": 140.306793
  },
  {
    "id": 1787,
    "meeting_name": "習志野例会",
    "next_date": "2026-06-27",
    "start_time": "18:30",
    "end_time": "20:30",
    "recurrence": "第4土曜",
    "address": "千葉県習志野市本大久保３丁目８−１９",
    "prefecture": "千葉県",
    "latitude": 35.685467,
    "longitude": 140.047119
  },
  {
    "id": 4,
    "meeting_name": "台東断酒会　例会",
    "next_date": "2026-06-27",
    "start_time": "18:30",
    "end_time": "20:30",
    "recurrence": "第4土曜",
    "address": "〒110-0003 東京都台東区根岸５丁目１８−１３",
    "prefecture": "東京都",
    "latitude": 35.7290503,
    "longitude": 139.7904743
  },
  {
    "id": 885,
    "meeting_name": "桂",
    "next_date": "2026-06-27",
    "start_time": "18:30:00",
    "end_time": "19:30:00",
    "recurrence": "毎週土曜",
    "address": "京都府京都市西京区桂木ノ下町1-86",
    "prefecture": "京都府",
    "latitude": 34.981339,
    "longitude": 135.705292
  },
  {
    "id": 895,
    "meeting_name": "西山",
    "next_date": "2026-06-27",
    "start_time": "18:30:00",
    "end_time": "20:30:00",
    "recurrence": "毎週土曜",
    "address": "京都府京都市西京区大原野西境谷町2丁目14-16",
    "prefecture": "京都府",
    "latitude": 34.962212,
    "longitude": 135.668976
  },
  {
    "id": 80,
    "meeting_name": "例会",
    "next_date": "2026-06-27",
    "start_time": "18:45",
    "end_time": "20:30",
    "recurrence": "第1・第3・第4土曜",
    "address": "〒244-0003 神奈川県横浜市戸塚区戸塚町１２７ 横浜市戸塚センター",
    "prefecture": "神奈川県",
    "latitude": 35.3979389,
    "longitude": 139.5326778
  },
  {
    "id": 110,
    "meeting_name": "例会",
    "next_date": "2026-06-27",
    "start_time": "18:45",
    "end_time": "20:30",
    "recurrence": "第1・第3・第4土曜",
    "address": "〒238-0046 神奈川県横須賀市西逸見町１丁目１−３８−１１",
    "prefecture": "神奈川県",
    "latitude": 35.2842547,
    "longitude": 139.6521476
  },
  {
    "id": 142,
    "meeting_name": "和光断酒のつどい",
    "next_date": "2026-06-27",
    "start_time": "19:00",
    "end_time": "21:00",
    "recurrence": "第4土曜",
    "address": "和光市白子3-8-21",
    "prefecture": "埼玉県",
    "latitude": 35.78893619999999,
    "longitude": 139.6282305
  },
  {
    "id": 145,
    "meeting_name": "大宮例会（第4土曜）",
    "next_date": "2026-06-27",
    "start_time": "19:00",
    "end_time": "21:00",
    "recurrence": "第4土曜",
    "address": "さいたま市大宮区桜木町1-10-18  ｼｰﾉ大宮ｾﾝﾀｰﾌﾟﾗｻﾞ8F",
    "prefecture": "埼玉県",
    "latitude": 35.9043394,
    "longitude": 139.6205317
  },
  {
    "id": 156,
    "meeting_name": "戸田例会",
    "next_date": "2026-06-27",
    "start_time": "19:00",
    "end_time": "21:00",
    "recurrence": "第2・第4土曜",
    "address": "戸田市上戸田２－２１－１",
    "prefecture": "埼玉県",
    "latitude": 35.8125457,
    "longitude": 139.6808877
  },
  {
    "id": 1804,
    "meeting_name": "大宮例会",
    "next_date": "2026-06-27",
    "start_time": "19:00",
    "end_time": "20:30",
    "recurrence": "第2・第4土曜",
    "address": "埼玉県さいたま市大宮区桜木町2-1-18",
    "prefecture": "埼玉県",
    "latitude": 35.906166,
    "longitude": 139.622147
  },
  {
    "id": 435,
    "meeting_name": "宇都宮断酒会 姿川支部例会",
    "next_date": "2026-06-27",
    "start_time": "19:00",
    "end_time": "21:00",
    "recurrence": "毎週土曜",
    "address": "栃木県宇都宮市西川田町805-1",
    "prefecture": "栃木県",
    "latitude": 36.529596,
    "longitude": 139.8490398
  },
  {
    "id": 439,
    "meeting_name": "北部断酒会 氏家支部例会",
    "next_date": "2026-06-27",
    "start_time": "19:00",
    "end_time": "21:00",
    "recurrence": "毎週土曜",
    "address": "栃木県宇都宮市中里町181-3",
    "prefecture": "栃木県",
    "latitude": 36.6830428,
    "longitude": 139.9011579
  },
  {
    "id": 440,
    "meeting_name": "北部断酒会 烏山支部例会",
    "next_date": "2026-06-27",
    "start_time": "19:00",
    "end_time": "21:00",
    "recurrence": "毎週土曜",
    "address": "栃木県那須烏山市野上703",
    "prefecture": "栃木県",
    "latitude": 36.6349305,
    "longitude": 140.1508523
  },
  {
    "id": 442,
    "meeting_name": "南部断酒会 真岡支部例会",
    "next_date": "2026-06-27",
    "start_time": "19:00",
    "end_time": "21:00",
    "recurrence": "毎週土曜",
    "address": "栃木県真岡市荒町1201",
    "prefecture": "栃木県",
    "latitude": 36.4392761,
    "longitude": 140.0166399
  },
  {
    "id": 88,
    "meeting_name": "中原市民館例会　中原市民館　第４会議室",
    "next_date": "2026-06-27",
    "start_time": "19:00",
    "end_time": "20:45",
    "recurrence": "第4土曜",
    "address": "〒214-0014 神奈川県川崎市多摩区登戸１７７５−１",
    "prefecture": "神奈川県",
    "latitude": 35.6194623,
    "longitude": 139.562151
  },
  {
    "id": 88,
    "meeting_name": "中原市民館例会",
    "next_date": "2026-06-27",
    "start_time": "19:00",
    "end_time": "20:45",
    "recurrence": "第4土曜",
    "address": "〒214-0014 神奈川県川崎市多摩区登戸１７７５−１",
    "prefecture": "神奈川県",
    "latitude": 35.6194623,
    "longitude": 139.562151
  },
  {
    "id": 1434,
    "meeting_name": "南福岡",
    "next_date": "2026-06-27",
    "start_time": "19:00",
    "end_time": "21:00",
    "recurrence": "第2・第4・第5土曜",
    "address": "福岡県福岡市南区塩原 2-8-2",
    "prefecture": "福岡県",
    "latitude": 33.565971,
    "longitude": 130.423935
  },
  {
    "id": 1458,
    "meeting_name": "福岡",
    "next_date": "2026-06-27",
    "start_time": "19:00",
    "end_time": "21:00",
    "recurrence": "第4土曜",
    "address": "福岡県古賀市庄 205",
    "prefecture": "福岡県",
    "latitude": 33.729534,
    "longitude": 130.478851
  },
  {
    "id": 822,
    "meeting_name": "亀岡",
    "next_date": "2026-06-27",
    "start_time": "19:00:00",
    "end_time": "21:00:00",
    "recurrence": "毎週土曜",
    "address": "京都府亀岡市内丸町45-1",
    "prefecture": "京都府",
    "latitude": 35.013947,
    "longitude": 135.578735
  },
  {
    "id": 934,
    "meeting_name": "住之江断酒会",
    "next_date": "2026-06-27",
    "start_time": "19:00:00",
    "end_time": "20:45:00",
    "recurrence": "第2・第3・第4・第5土曜",
    "address": "大阪府大阪市住之江区浜口西1丁目",
    "prefecture": "大阪府",
    "latitude": 34.612553,
    "longitude": 135.485367
  },
  {
    "id": 1002,
    "meeting_name": "枚方",
    "next_date": "2026-06-27",
    "start_time": "19:00:00",
    "end_time": "20:30:00",
    "recurrence": "第2・第3・第4・第5土曜",
    "address": "大阪府枚方市宇山町4-5",
    "prefecture": "大阪府",
    "latitude": 34.842686,
    "longitude": 135.668991
  },
  {
    "id": 1010,
    "meeting_name": "(例会)",
    "next_date": "2026-06-27",
    "start_time": "19:00:00",
    "end_time": "20:45:00",
    "recurrence": "毎週土曜",
    "address": "大阪府泉佐野市大西1丁目23-9",
    "prefecture": "大阪府",
    "latitude": 34.409988,
    "longitude": 135.312454
  },
  {
    "id": 1017,
    "meeting_name": "茨木市断酒会茨木支部例会",
    "next_date": "2026-06-27",
    "start_time": "19:00:00",
    "end_time": "20:30:00",
    "recurrence": "第1・第3・第4・第5土曜",
    "address": "大阪府茨木市東宮町1-19",
    "prefecture": "大阪府",
    "latitude": 34.822735,
    "longitude": 135.5746
  },
  {
    "id": 1034,
    "meeting_name": "高槻市断酒会南支部例会",
    "next_date": "2026-06-27",
    "start_time": "19:00:00",
    "end_time": "21:00:00",
    "recurrence": "第2・第3・第4・第5土曜",
    "address": "大阪府高槻市城内町1-1",
    "prefecture": "大阪府",
    "latitude": 34.844898,
    "longitude": 135.622314
  },
  {
    "id": 1748,
    "meeting_name": "吹田市断酒会吹田支部例会",
    "next_date": "2026-06-27",
    "start_time": "19:00:00",
    "end_time": "21:00:00",
    "recurrence": "第2・第3・第4・第5土曜",
    "address": "",
    "prefecture": "大阪府",
    "latitude": 34.7643158,
    "longitude": 135.5142134
  },
  {
    "id": 1765,
    "meeting_name": "(例会)",
    "next_date": "2026-06-27",
    "start_time": "19:00:00",
    "end_time": "20:30:00",
    "recurrence": "毎週土曜",
    "address": "",
    "prefecture": "大阪府",
    "latitude": 34.711945,
    "longitude": 135.623337
  },
  {
    "id": 1766,
    "meeting_name": "東",
    "next_date": "2026-06-27",
    "start_time": "19:00:00",
    "end_time": "20:35:00",
    "recurrence": "第2・第3・第4・第5土曜",
    "address": "",
    "prefecture": "大阪府",
    "latitude": 34.766109,
    "longitude": 135.628052
  },
  {
    "id": 1770,
    "meeting_name": "本部例会",
    "next_date": "2026-06-27",
    "start_time": "19:00:00",
    "end_time": "20:45:00",
    "recurrence": "第4土曜",
    "address": "",
    "prefecture": "大阪府",
    "latitude": 34.6710704,
    "longitude": 135.5997453
  },
  {
    "id": 1660,
    "meeting_name": "定例会",
    "next_date": "2026-06-27",
    "start_time": "19:00:00",
    "end_time": "",
    "recurrence": "第1・第2・第4土曜",
    "address": "静岡県浜松市",
    "prefecture": "静岡県",
    "latitude": 34.710808,
    "longitude": 137.726303
  },
  {
    "id": 1668,
    "meeting_name": "定例会",
    "next_date": "2026-06-27",
    "start_time": "19:00:00",
    "end_time": "",
    "recurrence": "第4土曜",
    "address": "静岡県長泉町",
    "prefecture": "静岡県",
    "latitude": 35.137657,
    "longitude": 138.897171
  },
  {
    "id": 1669,
    "meeting_name": "合同例会",
    "next_date": "2026-06-27",
    "start_time": "19:00:00",
    "end_time": "",
    "recurrence": "第2・第4土曜",
    "address": "静岡県磐田市",
    "prefecture": "静岡県",
    "latitude": 34.717903,
    "longitude": 137.851532
  },
  {
    "id": 1669,
    "meeting_name": "定例会",
    "next_date": "2026-06-27",
    "start_time": "19:00:00",
    "end_time": "",
    "recurrence": "毎週土曜",
    "address": "静岡県磐田市",
    "prefecture": "静岡県",
    "latitude": 34.717903,
    "longitude": 137.851532
  },
  {
    "id": 1670,
    "meeting_name": "中部Ｂ合同家族ﾐｰﾃｨﾝｸﾞ･女性ﾐｰﾃｨﾝｸﾞ･本人ﾐｰﾃｨﾝｸﾞ(第1.2.3学習室)",
    "next_date": "2026-06-27",
    "start_time": "19:00:00",
    "end_time": "",
    "recurrence": "第3・第4土曜",
    "address": "静岡県藤枝市",
    "prefecture": "静岡県",
    "latitude": 34.8675,
    "longitude": 138.257782
  },
  {
    "id": 1672,
    "meeting_name": "定例会",
    "next_date": "2026-06-27",
    "start_time": "19:00:00",
    "end_time": "",
    "recurrence": "第4土曜",
    "address": "静岡県静岡市",
    "prefecture": "静岡県",
    "latitude": 34.975185,
    "longitude": 138.383286
  },
  {
    "id": 1676,
    "meeting_name": "地区例会",
    "next_date": "2026-06-27",
    "start_time": "19:00:00",
    "end_time": "",
    "recurrence": "第4土曜",
    "address": "静岡県富士市伝法",
    "prefecture": "静岡県",
    "latitude": 35.178631,
    "longitude": 138.672836
  },
  {
    "id": 1698,
    "meeting_name": "ﾌｫｰﾗﾑ(学習室3)",
    "next_date": "2026-06-27",
    "start_time": "19:00:00",
    "end_time": "",
    "recurrence": "第3・第4土曜",
    "address": "静岡県藤枝市青南町",
    "prefecture": "静岡県",
    "latitude": 34.837364,
    "longitude": 138.24231
  },
  {
    "id": 254,
    "meeting_name": "一日研修会",
    "next_date": "2026-06-28",
    "start_time": "10:00",
    "end_time": "15:30",
    "recurrence": "第1・第4日曜",
    "address": "〒272-0021 千葉県市川市八幡４丁目２−１",
    "prefecture": "千葉県",
    "latitude": 35.7241234,
    "longitude": 139.9307643
  },
  {
    "id": 1800,
    "meeting_name": "関宿例会",
    "next_date": "2026-06-28",
    "start_time": "13:00",
    "end_time": "15:30",
    "recurrence": "第1・第4日曜",
    "address": "千葉県野田市木間ケ瀬２９３５",
    "prefecture": "千葉県",
    "latitude": 36.019901,
    "longitude": 139.840256
  },
  {
    "id": 21,
    "meeting_name": "京王断酒会　例会",
    "next_date": "2026-06-28",
    "start_time": "13:00",
    "end_time": "15:00",
    "recurrence": "第4・第5日曜",
    "address": "〒182-0024 東京都調布市布田１丁目２９−４",
    "prefecture": "東京都",
    "latitude": 35.6533767,
    "longitude": 139.5453749
  },
  {
    "id": 463,
    "meeting_name": "京王断酒会　例会",
    "next_date": "2026-06-28",
    "start_time": "13:00",
    "end_time": "15:00",
    "recurrence": "第4・第5日曜",
    "address": "〒182-0024 東京都調布市布田１丁目２９−４",
    "prefecture": "東京都",
    "latitude": 35.6508,
    "longitude": 139.5706
  },
  {
    "id": 1673,
    "meeting_name": "沼津昼例会",
    "next_date": "2026-06-28",
    "start_time": "14:00:00",
    "end_time": "15:45:00",
    "recurrence": "第4日曜",
    "address": "静岡県沼津市",
    "prefecture": "静岡県",
    "latitude": 35.095554,
    "longitude": 138.863617
  },
  {
    "id": 102,
    "meeting_name": "未定)オンライン例会 Zoom",
    "next_date": "2026-06-28",
    "start_time": "18:00",
    "end_time": "20:00",
    "recurrence": "第1・第2・第4日曜",
    "address": "",
    "prefecture": "神奈川県",
    "latitude": 35.4913535,
    "longitude": 139.284143
  },
  {
    "id": 1681,
    "meeting_name": "地区例会",
    "next_date": "2026-06-28",
    "start_time": "19:00:00",
    "end_time": "",
    "recurrence": "第4日曜",
    "address": "静岡県静岡市",
    "prefecture": "静岡県",
    "latitude": 34.975185,
    "longitude": 138.383286
  },
  {
    "id": 1704,
    "meeting_name": "掛川地区例会",
    "next_date": "2026-06-28",
    "start_time": "19:00:00",
    "end_time": "",
    "recurrence": "第4日曜",
    "address": "静岡県掛川市掛川",
    "prefecture": "静岡県",
    "latitude": 34.776451,
    "longitude": 138.018402
  },
  {
    "id": 1710,
    "meeting_name": "賀茂保健所例会(昼例会)",
    "next_date": "2026-06-28",
    "start_time": "19:00:00",
    "end_time": "",
    "recurrence": "第4日曜",
    "address": "静岡県伊豆市",
    "prefecture": "静岡県",
    "latitude": 34.97657,
    "longitude": 138.946732
  },
  {
    "id": 899,
    "meeting_name": "長岡京",
    "next_date": "2026-06-29",
    "start_time": "18:50:00",
    "end_time": "20:50:00",
    "recurrence": "第5月曜",
    "address": "京都府長岡京市神足2丁目3-1",
    "prefecture": "京都府",
    "latitude": 34.922722,
    "longitude": 135.699707
  },
  {
    "id": 157,
    "meeting_name": "🚩合同例会/家族会",
    "next_date": "2026-06-30",
    "start_time": "19:00",
    "end_time": "21:00",
    "recurrence": "第5火曜",
    "address": "川口市並木2-8-2",
    "prefecture": "埼玉県",
    "latitude": 35.8168722,
    "longitude": 139.7089682
  },
  {
    "id": 1740,
    "meeting_name": "淀川南",
    "next_date": "2026-06-30",
    "start_time": "19:00:00",
    "end_time": "20:45:00",
    "recurrence": "第1・第3・第5火曜",
    "address": "",
    "prefecture": "大阪府",
    "latitude": 34.7253876,
    "longitude": 135.4803269
  },
  {
    "id": 1665,
    "meeting_name": "第5例会家族会",
    "next_date": "2026-06-30",
    "start_time": "19:30:00",
    "end_time": "",
    "recurrence": "第5火曜",
    "address": "静岡県牧之原市牧之原",
    "prefecture": "静岡県",
    "latitude": 34.762508,
    "longitude": 138.13562
  },
  {
    "id": 151,
    "meeting_name": "南部昼例会",
    "next_date": "2026-07-01",
    "start_time": "13:00",
    "end_time": "15:00",
    "recurrence": "第1水曜",
    "address": "川口市幸町３－８－３３",
    "prefecture": "埼玉県",
    "latitude": 35.8054912,
    "longitude": 139.7178743
  },
  {
    "id": 297,
    "meeting_name": "福生酒害相談",
    "next_date": "2026-07-01",
    "start_time": "13:00",
    "end_time": "16:00",
    "recurrence": "第1・第3水曜",
    "address": "東京都福生市福生１０１４−１０",
    "prefecture": "東京都",
    "latitude": 35.7422623,
    "longitude": 139.3276923
  },
  {
    "id": 71,
    "meeting_name": "神断連昼例会　県民センター7階",
    "next_date": "2026-07-01",
    "start_time": "13:00",
    "end_time": "14:30",
    "recurrence": "第1・第2水曜",
    "address": "〒221-0835 神奈川県横浜市神奈川区鶴屋町２丁目２４−２",
    "prefecture": "神奈川県",
    "latitude": 35.4684095,
    "longitude": 139.6207449
  },
  {
    "id": 71,
    "meeting_name": "神断連昼例会",
    "next_date": "2026-07-01",
    "start_time": "13:00",
    "end_time": "14:30",
    "recurrence": "第1・第2・第3水曜",
    "address": "〒221-0835 神奈川県横浜市神奈川区鶴屋町２丁目２４−２",
    "prefecture": "神奈川県",
    "latitude": 35.4684095,
    "longitude": 139.6207449
  },
  {
    "id": 1789,
    "meeting_name": "豊友会",
    "next_date": "2026-07-01",
    "start_time": "14:00",
    "end_time": "20:30",
    "recurrence": "第1・第5水曜",
    "address": "千葉県鎌ケ谷市初富８０８−５４",
    "prefecture": "千葉県",
    "latitude": 35.779415,
    "longitude": 140.015228
  },
  {
    "id": 255,
    "meeting_name": "柏例会",
    "next_date": "2026-07-01",
    "start_time": "18:30",
    "end_time": "20:30",
    "recurrence": "第1・第2・第3水曜",
    "address": "〒277-0004 千葉県柏市柏下６５−１−６５−１",
    "prefecture": "千葉県",
    "latitude": 35.8669173,
    "longitude": 139.9866516
  },
  {
    "id": 3,
    "meeting_name": "京王断酒会　調布第1懇談会",
    "next_date": "2026-07-01",
    "start_time": "18:30",
    "end_time": "20:30",
    "recurrence": "第1水曜",
    "address": "",
    "prefecture": "東京都",
    "latitude": 35.752978,
    "longitude": 139.734183
  },
  {
    "id": 5,
    "meeting_name": "江東断酒会　A懇談会",
    "next_date": "2026-07-01",
    "start_time": "18:30",
    "end_time": "20:30",
    "recurrence": "第1水曜",
    "address": "〒136-0072 東京都江東区大島４丁目５−１",
    "prefecture": "東京都",
    "latitude": 35.68903580000001,
    "longitude": 139.8269998
  },
  {
    "id": 10,
    "meeting_name": "北断酒会　第1例会",
    "next_date": "2026-07-01",
    "start_time": "18:30",
    "end_time": "20:30",
    "recurrence": "第1水曜",
    "address": "〒154-0004 東京都世田谷区太子堂１丁目１４−２０ 世田谷区立太子堂区民センター",
    "prefecture": "東京都",
    "latitude": 35.6428861,
    "longitude": 139.6736244
  },
  {
    "id": 10,
    "meeting_name": "江東断酒会　A懇談会",
    "next_date": "2026-07-01",
    "start_time": "18:30",
    "end_time": "20:30",
    "recurrence": "第1水曜",
    "address": "〒154-0004 東京都世田谷区太子堂１丁目１４−２０ 世田谷区立太子堂区民センター",
    "prefecture": "東京都",
    "latitude": 35.6428861,
    "longitude": 139.6736244
  },
  {
    "id": 18,
    "meeting_name": "シングルの集い　1",
    "next_date": "2026-07-01",
    "start_time": "18:30",
    "end_time": "20:30",
    "recurrence": "第1水曜",
    "address": "",
    "prefecture": "東京都",
    "latitude": 35.6911512,
    "longitude": 139.7770967
  },
  {
    "id": 26,
    "meeting_name": "北断酒会　第1例会",
    "next_date": "2026-07-01",
    "start_time": "18:30",
    "end_time": "20:30",
    "recurrence": "第1水曜",
    "address": "〒114-0032 東京都北区中十条１丁目２−１８",
    "prefecture": "東京都",
    "latitude": 35.7576949,
    "longitude": 139.729642
  },
  {
    "id": 36,
    "meeting_name": "葛飾断酒会　第1例会",
    "next_date": "2026-07-01",
    "start_time": "18:30",
    "end_time": "20:30",
    "recurrence": "第1・第2水曜",
    "address": "〒124-0012 東京都葛飾区立石３丁目１２−１",
    "prefecture": "東京都",
    "latitude": 35.7400582,
    "longitude": 139.8436094
  },
  {
    "id": 411,
    "meeting_name": "京王断酒会　調布第1懇談会",
    "next_date": "2026-07-01",
    "start_time": "18:30",
    "end_time": "20:30",
    "recurrence": "第1水曜",
    "address": "",
    "prefecture": "東京都",
    "latitude": 35.6764225,
    "longitude": 139.650027
  },
  {
    "id": 131,
    "meeting_name": "岩槻例会",
    "next_date": "2026-07-01",
    "start_time": "19:00",
    "end_time": "21:00",
    "recurrence": "第1・第3水曜",
    "address": "さいたま市岩槻区本町1-10-7",
    "prefecture": "埼玉県",
    "latitude": 35.9470694,
    "longitude": 139.6917085
  },
  {
    "id": 137,
    "meeting_name": "富士見例会",
    "next_date": "2026-07-01",
    "start_time": "19:00",
    "end_time": "21:00",
    "recurrence": "第1水曜",
    "address": "富士見市針ヶ谷1-38",
    "prefecture": "埼玉県",
    "latitude": 35.8320496,
    "longitude": 139.5539752
  },
  {
    "id": 443,
    "meeting_name": "両毛断酒会 足利支部例会",
    "next_date": "2026-07-01",
    "start_time": "19:00",
    "end_time": "21:00",
    "recurrence": "第1・第3水曜",
    "address": "栃木県足利市本城1-1560",
    "prefecture": "栃木県",
    "latitude": 36.3527186,
    "longitude": 139.4529557
  },
  {
    "id": 80,
    "meeting_name": "合同例会",
    "next_date": "2026-07-01",
    "start_time": "19:00",
    "end_time": "21:00",
    "recurrence": "第1・第3・第5水曜",
    "address": "〒244-0003 神奈川県横浜市戸塚区戸塚町１２７ 横浜市戸塚センター",
    "prefecture": "神奈川県",
    "latitude": 35.3979389,
    "longitude": 139.5326778
  },
  {
    "id": 1455,
    "meeting_name": "春日",
    "next_date": "2026-07-01",
    "start_time": "19:00",
    "end_time": "21:00",
    "recurrence": "第1水曜",
    "address": "福岡県春日市大谷 6丁目24",
    "prefecture": "福岡県",
    "latitude": 33.528061,
    "longitude": 130.455612
  },
  {
    "id": 1720,
    "meeting_name": "本部",
    "next_date": "2026-07-01",
    "start_time": "19:00:00",
    "end_time": "20:45:00",
    "recurrence": "第1・第3水曜",
    "address": "京都府下京区西木屋町通上ノ口上る梅湊町83-1",
    "prefecture": "京都府",
    "latitude": 35.02124,
    "longitude": 135.755615
  },
  {
    "id": 992,
    "meeting_name": "布施西",
    "next_date": "2026-07-01",
    "start_time": "19:00:00",
    "end_time": "20:45:00",
    "recurrence": "第1水曜",
    "address": "大阪府東大阪市荒川1丁目8-19",
    "prefecture": "大阪府",
    "latitude": 34.661854,
    "longitude": 135.568527
  },
  {
    "id": 1028,
    "meeting_name": "(本部)",
    "next_date": "2026-07-01",
    "start_time": "19:00:00",
    "end_time": "21:00:00",
    "recurrence": "第1水曜",
    "address": "大阪府阪南市尾崎町1丁目18-15",
    "prefecture": "大阪府",
    "latitude": 34.361382,
    "longitude": 135.2388
  },
  {
    "id": 1670,
    "meeting_name": "合同ﾐｰﾃｨﾝｸﾞ(ﾘｶﾊﾞﾘｰﾐｰﾃｨﾝｸﾞ)",
    "next_date": "2026-07-01",
    "start_time": "19:00:00",
    "end_time": "",
    "recurrence": "第1水曜",
    "address": "静岡県藤枝市",
    "prefecture": "静岡県",
    "latitude": 34.8675,
    "longitude": 138.257782
  },
  {
    "id": 1677,
    "meeting_name": "小例会",
    "next_date": "2026-07-01",
    "start_time": "19:00:00",
    "end_time": "",
    "recurrence": "第1水曜",
    "address": "静岡県静岡市清水区蒲原",
    "prefecture": "静岡県",
    "latitude": 35.13126,
    "longitude": 138.600449
  },
  {
    "id": 1745,
    "meeting_name": "摂津市断酒会例会",
    "next_date": "2026-07-02",
    "start_time": "14:00:00",
    "end_time": "16:00:00",
    "recurrence": "第1・第2木曜",
    "address": "",
    "prefecture": "大阪府",
    "latitude": 34.7858495,
    "longitude": 135.5566727
  },
  {
    "id": 80,
    "meeting_name": "未定)相談会",
    "next_date": "2026-07-02",
    "start_time": "18:00",
    "end_time": "18:45",
    "recurrence": "第1・第2木曜",
    "address": "〒244-0003 神奈川県横浜市戸塚区戸塚町１２７ 横浜市戸塚センター",
    "prefecture": "神奈川県",
    "latitude": 35.3979389,
    "longitude": 139.5326778
  },
  {
    "id": 8,
    "meeting_name": "墨田断酒会　第1例会",
    "next_date": "2026-07-02",
    "start_time": "18:30",
    "end_time": "20:30",
    "recurrence": "第1木曜",
    "address": "両国駅前会館（ライオンズステーション南側１F）墨田区両国２丁目２０−１２ ライオンズステーションプラザ両国 (地図)",
    "prefecture": "東京都",
    "latitude": 35.6953018,
    "longitude": 139.7926487
  },
  {
    "id": 9,
    "meeting_name": "中野断酒会　例会",
    "next_date": "2026-07-02",
    "start_time": "18:30",
    "end_time": "20:30",
    "recurrence": "第1・第2木曜",
    "address": "〒156-0052 東京都世田谷区経堂３丁目３７−１３",
    "prefecture": "東京都",
    "latitude": 35.651765,
    "longitude": 139.632168
  },
  {
    "id": 9,
    "meeting_name": "墨田断酒会　第1例会",
    "next_date": "2026-07-02",
    "start_time": "18:30",
    "end_time": "20:30",
    "recurrence": "第1木曜",
    "address": "〒156-0052 東京都世田谷区経堂３丁目３７−１３",
    "prefecture": "東京都",
    "latitude": 35.651765,
    "longitude": 139.632168
  },
  {
    "id": 37,
    "meeting_name": "世田谷断酒会　玉川懇談会",
    "next_date": "2026-07-02",
    "start_time": "18:30",
    "end_time": "20:30",
    "recurrence": "第1木曜",
    "address": "〒158-0097 東京都世田谷区用賀４丁目１０−６",
    "prefecture": "東京都",
    "latitude": 35.6271257,
    "longitude": 139.6315835
  },
  {
    "id": 45,
    "meeting_name": "中野断酒会　例会",
    "next_date": "2026-07-02",
    "start_time": "18:30",
    "end_time": "20:30",
    "recurrence": "第1・第2木曜",
    "address": "〒164-0001 東京都中野区中野５丁目６８−７",
    "prefecture": "東京都",
    "latitude": 35.7091842,
    "longitude": 139.6652819
  },
  {
    "id": 1671,
    "meeting_name": "小例会",
    "next_date": "2026-07-02",
    "start_time": "18:30:00",
    "end_time": "19:00:00",
    "recurrence": "第1木曜",
    "address": "静岡県伊豆市",
    "prefecture": "静岡県",
    "latitude": 34.97657,
    "longitude": 138.946732
  },
  {
    "id": 80,
    "meeting_name": "未定)平塚例会",
    "next_date": "2026-07-02",
    "start_time": "18:45",
    "end_time": "20:30",
    "recurrence": "第1・第2木曜",
    "address": "〒244-0003 神奈川県横浜市戸塚区戸塚町１２７ 横浜市戸塚センター",
    "prefecture": "神奈川県",
    "latitude": 35.3979389,
    "longitude": 139.5326778
  },
  {
    "id": 65,
    "meeting_name": "与野例会",
    "next_date": "2026-07-02",
    "start_time": "19:00",
    "end_time": "21:00",
    "recurrence": "第1・第3木曜",
    "address": "〒338-0002 埼玉県さいたま市中央区下落合１７１２ 103 スカイレジデンシャルタワーズ ノースウィング301・401",
    "prefecture": "埼玉県",
    "latitude": 35.8847567,
    "longitude": 139.6367987
  },
  {
    "id": 24,
    "meeting_name": "目黒断酒会　懇談会",
    "next_date": "2026-07-02",
    "start_time": "19:00",
    "end_time": "20:30",
    "recurrence": "第1木曜",
    "address": "〒152-0001 東京都目黒区中央町２丁目４−１８ 中央町さくらプラザ地下1階",
    "prefecture": "東京都",
    "latitude": 35.6322333,
    "longitude": 139.691941
  },
  {
    "id": 80,
    "meeting_name": "辻堂例会",
    "next_date": "2026-07-02",
    "start_time": "19:00",
    "end_time": "21:00",
    "recurrence": "第1木曜",
    "address": "〒244-0003 神奈川県横浜市戸塚区戸塚町１２７ 横浜市戸塚センター",
    "prefecture": "神奈川県",
    "latitude": 35.3979389,
    "longitude": 139.5326778
  },
  {
    "id": 1755,
    "meeting_name": "(本部)",
    "next_date": "2026-07-02",
    "start_time": "19:00:00",
    "end_time": "20:45:00",
    "recurrence": "第1木曜",
    "address": "",
    "prefecture": "大阪府",
    "latitude": 34.520557,
    "longitude": 135.442215
  },
  {
    "id": 1671,
    "meeting_name": "定例会",
    "next_date": "2026-07-02",
    "start_time": "19:00:00",
    "end_time": "",
    "recurrence": "第1木曜",
    "address": "静岡県伊豆市",
    "prefecture": "静岡県",
    "latitude": 34.97657,
    "longitude": 138.946732
  },
  {
    "id": 1678,
    "meeting_name": "小例会",
    "next_date": "2026-07-02",
    "start_time": "19:00:00",
    "end_time": "",
    "recurrence": "第1木曜",
    "address": "静岡県静岡市清水区",
    "prefecture": "静岡県",
    "latitude": 35.015835,
    "longitude": 138.489716
  },
  {
    "id": 1691,
    "meeting_name": "定例会",
    "next_date": "2026-07-02",
    "start_time": "19:00:00",
    "end_time": "",
    "recurrence": "第1・第2木曜",
    "address": "静岡県富士市",
    "prefecture": "静岡県",
    "latitude": 35.16135,
    "longitude": 138.676239
  },
  {
    "id": 1729,
    "meeting_name": "南部昼",
    "next_date": "2026-07-03",
    "start_time": "14:00:00",
    "end_time": "16:00:00",
    "recurrence": "第1金曜",
    "address": "京都府京田辺市田辺明田1番地",
    "prefecture": "京都府",
    "latitude": 35.02124,
    "longitude": 135.755615
  },
  {
    "id": 1795,
    "meeting_name": "アルコール教室",
    "next_date": "2026-07-03",
    "start_time": "14:30",
    "end_time": "16:00",
    "recurrence": "第1・第2金曜",
    "address": "千葉県我孫子市湖北台１丁目１２−１６",
    "prefecture": "千葉県",
    "latitude": 35.866039,
    "longitude": 140.07782
  },
  {
    "id": 16,
    "meeting_name": "足立断酒会　第1例会",
    "next_date": "2026-07-03",
    "start_time": "18:30",
    "end_time": "20:30",
    "recurrence": "第1金曜",
    "address": "〒121-0813 東京都足立区竹の塚２丁目２５−１７",
    "prefecture": "東京都",
    "latitude": 35.7925227,
    "longitude": 139.7950596
  },
  {
    "id": 20,
    "meeting_name": "大田断酒会　第1例会",
    "next_date": "2026-07-03",
    "start_time": "18:30",
    "end_time": "20:30",
    "recurrence": "第1金曜",
    "address": "〒144-0054 東京都大田区新蒲田１丁目１８−１６",
    "prefecture": "東京都",
    "latitude": 35.5574732,
    "longitude": 139.7113395
  },
  {
    "id": 1773,
    "meeting_name": "布施",
    "next_date": "2026-07-03",
    "start_time": "18:45:00",
    "end_time": "20:30:00",
    "recurrence": "第1金曜",
    "address": "",
    "prefecture": "大阪府",
    "latitude": 34.679443,
    "longitude": 135.60083
  },
  {
    "id": 155,
    "meeting_name": "鳩ヶ谷例会",
    "next_date": "2026-07-03",
    "start_time": "19:00",
    "end_time": "21:00",
    "recurrence": "第1・第5金曜",
    "address": "川口市大字里１４７８－１",
    "prefecture": "埼玉県",
    "latitude": 35.8285958,
    "longitude": 139.7308348
  },
  {
    "id": 158,
    "meeting_name": "桶川例会",
    "next_date": "2026-07-03",
    "start_time": "19:00",
    "end_time": "21:00",
    "recurrence": "第1・第3金曜",
    "address": "桶川市西1-5-21",
    "prefecture": "埼玉県",
    "latitude": 36.0026223,
    "longitude": 139.5616561
  },
  {
    "id": 1837,
    "meeting_name": "桶川例会",
    "next_date": "2026-07-03",
    "start_time": "19:00",
    "end_time": "21:00",
    "recurrence": "第1・第3金曜",
    "address": "埼玉県桶川市若宮1-5-9",
    "prefecture": "埼玉県",
    "latitude": 35.997028,
    "longitude": 139.56189
  },
  {
    "id": 129,
    "meeting_name": "加須例会",
    "next_date": "2026-07-04",
    "start_time": "10:00",
    "end_time": "12:00",
    "recurrence": "第1・第3土曜",
    "address": "加須市中央2-4-17",
    "prefecture": "埼玉県",
    "latitude": 36.1234174,
    "longitude": 139.59864
  },
  {
    "id": 256,
    "meeting_name": "アメシスト",
    "next_date": "2026-07-04",
    "start_time": "12:30",
    "end_time": "14:00",
    "recurrence": "第1土曜",
    "address": "〒274-0825 千葉県船橋市前原西２丁目２１−２１",
    "prefecture": "千葉県",
    "latitude": 35.6927812,
    "longitude": 140.0227357
  },
  {
    "id": 123,
    "meeting_name": "逗子本部例会",
    "next_date": "2026-07-04",
    "start_time": "13:00",
    "end_time": "14:30",
    "recurrence": "第1土曜",
    "address": "〒249-0005 神奈川県逗子市桜山５丁目３２ 福祉会館",
    "prefecture": "神奈川県",
    "latitude": 35.2947084,
    "longitude": 139.5937798
  },
  {
    "id": 1668,
    "meeting_name": "昼例会",
    "next_date": "2026-07-04",
    "start_time": "13:00:00",
    "end_time": "15:00:00",
    "recurrence": "第1土曜",
    "address": "静岡県長泉町",
    "prefecture": "静岡県",
    "latitude": 35.137657,
    "longitude": 138.897171
  },
  {
    "id": 283,
    "meeting_name": "江戸川断酒会　第1例会",
    "next_date": "2026-07-04",
    "start_time": "13:30",
    "end_time": "15:30",
    "recurrence": "第1土曜",
    "address": "〒134-0091 東京都江戸川区船堀４丁目１−１",
    "prefecture": "東京都",
    "latitude": 35.6842543,
    "longitude": 139.8648859
  },
  {
    "id": 256,
    "meeting_name": "菜の花会",
    "next_date": "2026-07-04",
    "start_time": "14:15",
    "end_time": "16:15",
    "recurrence": "第1・第2土曜",
    "address": "〒274-0825 千葉県船橋市前原西２丁目２１−２１",
    "prefecture": "千葉県",
    "latitude": 35.6927812,
    "longitude": 140.0227357
  },
  {
    "id": 80,
    "meeting_name": "秦野例会",
    "next_date": "2026-07-04",
    "start_time": "14:15",
    "end_time": "15:45",
    "recurrence": "第1土曜",
    "address": "〒244-0003 神奈川県横浜市戸塚区戸塚町１２７ 横浜市戸塚センター",
    "prefecture": "神奈川県",
    "latitude": 35.3979389,
    "longitude": 139.5326778
  },
  {
    "id": 254,
    "meeting_name": "市川例会",
    "next_date": "2026-07-04",
    "start_time": "18:30",
    "end_time": "20:30",
    "recurrence": "第1土曜",
    "address": "〒272-0021 千葉県市川市八幡４丁目２−１",
    "prefecture": "千葉県",
    "latitude": 35.7241234,
    "longitude": 139.9307643
  },
  {
    "id": 7,
    "meeting_name": "練馬断酒会　若葉会",
    "next_date": "2026-07-04",
    "start_time": "18:30",
    "end_time": "20:30",
    "recurrence": "第1土曜",
    "address": "〒179-0081 東京都練馬区北町８丁目２８−１０ 練馬区立北町地域集会所",
    "prefecture": "東京都",
    "latitude": 35.7677151,
    "longitude": 139.6496689
  },
  {
    "id": 35,
    "meeting_name": "練馬断酒会　若葉会",
    "next_date": "2026-07-04",
    "start_time": "18:30",
    "end_time": "20:30",
    "recurrence": "第1土曜",
    "address": "〒176-0001 東京都練馬区練馬１丁目１７−１",
    "prefecture": "東京都",
    "latitude": 35.7381707,
    "longitude": 139.6533531
  },
  {
    "id": 931,
    "meeting_name": "石津川支部",
    "next_date": "2026-07-04",
    "start_time": "18:40:00",
    "end_time": "20:40:00",
    "recurrence": "第1土曜",
    "address": "大阪府堺市西区浜寺諏訪森町中2丁219",
    "prefecture": "大阪府",
    "latitude": 34.549347,
    "longitude": 135.448807
  },
  {
    "id": 977,
    "meeting_name": "島本断酒会例会",
    "next_date": "2026-07-04",
    "start_time": "18:50:00",
    "end_time": "20:50:00",
    "recurrence": "第1土曜",
    "address": "大阪府三島郡島本町桜井3-4-1",
    "prefecture": "大阪府",
    "latitude": 34.883202,
    "longitude": 135.661392
  },
  {
    "id": 69,
    "meeting_name": "浦和例会",
    "next_date": "2026-07-04",
    "start_time": "19:00",
    "end_time": "21:00",
    "recurrence": "第1土曜",
    "address": "〒330-0063 埼玉県さいたま市東浦和区高砂１１−１",
    "prefecture": "埼玉県",
    "latitude": 35.8574923,
    "longitude": 139.6496729
  },
  {
    "id": 138,
    "meeting_name": "朝霞例会",
    "next_date": "2026-07-04",
    "start_time": "19:00",
    "end_time": "21:00",
    "recurrence": "第1土曜",
    "address": "朝霞市浜崎669-1",
    "prefecture": "埼玉県",
    "latitude": 35.8133138,
    "longitude": 139.590402
  },
  {
    "id": 138,
    "meeting_name": "西部アメシスト例会",
    "next_date": "2026-07-04",
    "start_time": "19:00",
    "end_time": "21:00",
    "recurrence": "第1土曜",
    "address": "朝霞市浜崎669-1",
    "prefecture": "埼玉県",
    "latitude": 35.8133138,
    "longitude": 139.590402
  },
  {
    "id": 138,
    "meeting_name": "西部アメシスト",
    "next_date": "2026-07-04",
    "start_time": "19:00",
    "end_time": "21:00",
    "recurrence": "第1土曜",
    "address": "朝霞市浜崎669-1",
    "prefecture": "埼玉県",
    "latitude": 35.8133138,
    "longitude": 139.590402
  },
  {
    "id": 166,
    "meeting_name": "本庄例会",
    "next_date": "2026-07-04",
    "start_time": "19:00",
    "end_time": "21:00",
    "recurrence": "第1・第3土曜",
    "address": "本庄市銀座1-1-1",
    "prefecture": "埼玉県",
    "latitude": 36.238615,
    "longitude": 139.1848107
  },
  {
    "id": 1805,
    "meeting_name": "浦和例会",
    "next_date": "2026-07-04",
    "start_time": "19:00",
    "end_time": "20:30",
    "recurrence": "第1土曜",
    "address": "埼玉県さいたま市南区白幡5-14-1",
    "prefecture": "埼玉県",
    "latitude": 35.841213,
    "longitude": 139.649292
  },
  {
    "id": 1431,
    "meeting_name": "若松",
    "next_date": "2026-07-04",
    "start_time": "19:00",
    "end_time": "21:00",
    "recurrence": "第1土曜",
    "address": "福岡県北九州市若松区本町三丁目 13-1",
    "prefecture": "福岡県",
    "latitude": 33.901302,
    "longitude": 130.807434
  },
  {
    "id": 944,
    "meeting_name": "合同例会",
    "next_date": "2026-07-04",
    "start_time": "19:00:00",
    "end_time": "21:00:00",
    "recurrence": "第1土曜",
    "address": "大阪府大阪市中央区島之内2丁目12-31",
    "prefecture": "大阪府",
    "latitude": 34.671837,
    "longitude": 135.50795
  },
  {
    "id": 1031,
    "meeting_name": "高槻市断酒会本部例会",
    "next_date": "2026-07-04",
    "start_time": "19:00:00",
    "end_time": "21:00:00",
    "recurrence": "第1土曜",
    "address": "大阪府高槻市富田町5丁目17-1",
    "prefecture": "大阪府",
    "latitude": 34.830853,
    "longitude": 135.595123
  },
  {
    "id": 1748,
    "meeting_name": "吹田市断酒会本部例会",
    "next_date": "2026-07-04",
    "start_time": "19:00:00",
    "end_time": "21:00:00",
    "recurrence": "第1土曜",
    "address": "",
    "prefecture": "大阪府",
    "latitude": 34.7643158,
    "longitude": 135.5142134
  },
  {
    "id": 1750,
    "meeting_name": "(合同)",
    "next_date": "2026-07-04",
    "start_time": "19:00:00",
    "end_time": "20:30:00",
    "recurrence": "第1土曜",
    "address": "",
    "prefecture": "大阪府",
    "latitude": 34.7932371,
    "longitude": 135.4473333
  },
  {
    "id": 1766,
    "meeting_name": "(本部例会)",
    "next_date": "2026-07-04",
    "start_time": "19:00:00",
    "end_time": "20:15:00",
    "recurrence": "第1土曜",
    "address": "",
    "prefecture": "大阪府",
    "latitude": 34.766109,
    "longitude": 135.628052
  },
  {
    "id": 1768,
    "meeting_name": "(本部)",
    "next_date": "2026-07-04",
    "start_time": "19:00:00",
    "end_time": "20:30:00",
    "recurrence": "第1土曜",
    "address": "",
    "prefecture": "大阪府",
    "latitude": 34.814445,
    "longitude": 135.650833
  },
  {
    "id": 1661,
    "meeting_name": "西部小例会",
    "next_date": "2026-07-04",
    "start_time": "19:00:00",
    "end_time": "",
    "recurrence": "第1・第3土曜",
    "address": "静岡県静岡市",
    "prefecture": "静岡県",
    "latitude": 34.975185,
    "longitude": 138.383286
  },
  {
    "id": 1662,
    "meeting_name": "南部小例会",
    "next_date": "2026-07-04",
    "start_time": "19:00:00",
    "end_time": "",
    "recurrence": "第1・第3土曜",
    "address": "静岡県静岡市",
    "prefecture": "静岡県",
    "latitude": 34.975185,
    "longitude": 138.383286
  },
  {
    "id": 1686,
    "meeting_name": "沼津定例会",
    "next_date": "2026-07-04",
    "start_time": "19:00:00",
    "end_time": "",
    "recurrence": "第1土曜",
    "address": "静岡県沼津市",
    "prefecture": "静岡県",
    "latitude": 35.095554,
    "longitude": 138.863617
  },
  {
    "id": 1687,
    "meeting_name": "地区例会",
    "next_date": "2026-07-04",
    "start_time": "19:00:00",
    "end_time": "",
    "recurrence": "第1土曜",
    "address": "静岡県富士市吉原",
    "prefecture": "静岡県",
    "latitude": 35.16058,
    "longitude": 138.691742
  },
  {
    "id": 1706,
    "meeting_name": "定例会",
    "next_date": "2026-07-04",
    "start_time": "19:00:00",
    "end_time": "",
    "recurrence": "第1土曜",
    "address": "静岡県藤枝市",
    "prefecture": "静岡県",
    "latitude": 34.8675,
    "longitude": 138.257782
  },
  {
    "id": 1711,
    "meeting_name": "定例会",
    "next_date": "2026-07-04",
    "start_time": "19:00:00",
    "end_time": "",
    "recurrence": "第1土曜",
    "address": "静岡県藤枝市",
    "prefecture": "静岡県",
    "latitude": 34.8675,
    "longitude": 138.257782
  },
  {
    "id": 1680,
    "meeting_name": "中部ﾐｰﾃｨﾝｸﾞ",
    "next_date": "2026-07-04",
    "start_time": "19:30:00",
    "end_time": "",
    "recurrence": "第1土曜",
    "address": "静岡県焼津市小川",
    "prefecture": "静岡県",
    "latitude": 34.85006,
    "longitude": 138.318253
  },
  {
    "id": 29,
    "meeting_name": "西武断酒会　朝例会",
    "next_date": "2026-07-05",
    "start_time": "10:00",
    "end_time": "12:00",
    "recurrence": "第1日曜",
    "address": "〒180-0013 東京都武蔵野市西久保１丁目２３−７ 西久保コミュニティセンター",
    "prefecture": "東京都",
    "latitude": 35.706036,
    "longitude": 139.5568566
  },
  {
    "id": 590,
    "meeting_name": "西武断酒会　朝例会",
    "next_date": "2026-07-05",
    "start_time": "10:00",
    "end_time": "12:00",
    "recurrence": "第1日曜",
    "address": "東京都武蔵野市西久保１丁目２３−",
    "prefecture": "東京都",
    "latitude": 35.705982,
    "longitude": 139.556717
  },
  {
    "id": 167,
    "meeting_name": "秩父例会",
    "next_date": "2026-07-05",
    "start_time": "13:00",
    "end_time": "15:00",
    "recurrence": "第1日曜",
    "address": "秩父市上宮地町27-5",
    "prefecture": "埼玉県",
    "latitude": 36.0026892,
    "longitude": 139.0906726
  },
  {
    "id": 2,
    "meeting_name": "酒害相談室",
    "next_date": "2026-07-05",
    "start_time": "13:00",
    "end_time": "15:00",
    "recurrence": "第1日曜",
    "address": "〒142-0043 東京都品川区二葉１丁目１−１−２",
    "prefecture": "東京都",
    "latitude": 35.6082279,
    "longitude": 139.7259931
  },
  {
    "id": 1462,
    "meeting_name": "松尾病院月例会",
    "next_date": "2026-07-05",
    "start_time": "13:00",
    "end_time": "15:00",
    "recurrence": "第1日曜",
    "address": "北九州市小倉南区葛原高松1丁目2-30",
    "prefecture": "福岡県",
    "latitude": 33.84528,
    "longitude": 130.924896
  },
  {
    "id": 5,
    "meeting_name": "江東",
    "next_date": "2026-07-05",
    "start_time": "13:30",
    "end_time": "15:30",
    "recurrence": "第1日曜",
    "address": "〒136-0072 東京都江東区大島４丁目５−１",
    "prefecture": "東京都",
    "latitude": 35.68903580000001,
    "longitude": 139.8269998
  },
  {
    "id": 5,
    "meeting_name": "江東婦",
    "next_date": "2026-07-05",
    "start_time": "13:30",
    "end_time": "15:30",
    "recurrence": "第1日曜",
    "address": "〒136-0072 東京都江東区大島４丁目５−１",
    "prefecture": "東京都",
    "latitude": 35.68903580000001,
    "longitude": 139.8269998
  },
  {
    "id": 10,
    "meeting_name": "江東婦",
    "next_date": "2026-07-05",
    "start_time": "13:30",
    "end_time": "15:30",
    "recurrence": "第1日曜",
    "address": "〒154-0004 東京都世田谷区太子堂１丁目１４−２０ 世田谷区立太子堂区民センター",
    "prefecture": "東京都",
    "latitude": 35.6428861,
    "longitude": 139.6736244
  },
  {
    "id": 1491,
    "meeting_name": "平尾台病院月例会",
    "next_date": "2026-07-05",
    "start_time": "13:30",
    "end_time": "15:30",
    "recurrence": "第1日曜",
    "address": "北九州市小倉南区大字木下５５５番地",
    "prefecture": "福岡県",
    "latitude": 33.772243,
    "longitude": 130.86116
  },
  {
    "id": 1493,
    "meeting_name": "新門司病院月例会",
    "next_date": "2026-07-05",
    "start_time": "13:45",
    "end_time": "15:45",
    "recurrence": "第1日曜",
    "address": "北九州市門司区猿喰615",
    "prefecture": "福岡県",
    "latitude": 33.896404,
    "longitude": 130.97551
  },
  {
    "id": 9,
    "meeting_name": "世田谷断酒会　例会",
    "next_date": "2026-07-05",
    "start_time": "14:00",
    "end_time": "16:00",
    "recurrence": "第1・第2日曜",
    "address": "〒156-0052 東京都世田谷区経堂３丁目３７−１３",
    "prefecture": "東京都",
    "latitude": 35.651765,
    "longitude": 139.632168
  },
  {
    "id": 1688,
    "meeting_name": "地区例会",
    "next_date": "2026-07-05",
    "start_time": "19:00:00",
    "end_time": "",
    "recurrence": "第1日曜",
    "address": "静岡県富士宮市富士見ケ丘",
    "prefecture": "静岡県",
    "latitude": 35.235241,
    "longitude": 138.623505
  },
  {
    "id": 1689,
    "meeting_name": "小笠地区例会",
    "next_date": "2026-07-05",
    "start_time": "19:00:00",
    "end_time": "",
    "recurrence": "第1日曜",
    "address": "静岡県掛川市菊浜",
    "prefecture": "静岡県",
    "latitude": 34.663002,
    "longitude": 138.060226
  },
  {
    "id": 159,
    "meeting_name": "新生塾 東松山",
    "next_date": "2026-07-06",
    "start_time": "13:00",
    "end_time": "15:00",
    "recurrence": "第1月曜",
    "address": "東松山市松本町1-9-35",
    "prefecture": "埼玉県",
    "latitude": 36.037929,
    "longitude": 139.4109623
  },
  {
    "id": 1836,
    "meeting_name": "東松山新生塾",
    "next_date": "2026-07-06",
    "start_time": "13:00",
    "end_time": "15:00",
    "recurrence": "第1月曜",
    "address": "埼玉県東松山市松本町1-9-35",
    "prefecture": "埼玉県",
    "latitude": 36.037666,
    "longitude": 139.410751
  },
  {
    "id": 1786,
    "meeting_name": "我孫子例会",
    "next_date": "2026-07-06",
    "start_time": "18:30",
    "end_time": "20:30",
    "recurrence": "第1・第3月曜",
    "address": "千葉県我孫子市柴崎台２丁目１５−８",
    "prefecture": "千葉県",
    "latitude": 35.875736,
    "longitude": 140.043671
  },
  {
    "id": 27,
    "meeting_name": "文京断酒会　例会",
    "next_date": "2026-07-06",
    "start_time": "18:30",
    "end_time": "20:30",
    "recurrence": "第1月曜",
    "address": "〒112-0003 東京都文京区春日２丁目９−５",
    "prefecture": "東京都",
    "latitude": 35.7132763,
    "longitude": 139.7409537
  },
  {
    "id": 39,
    "meeting_name": "練馬断酒会　第1例会",
    "next_date": "2026-07-06",
    "start_time": "18:30",
    "end_time": "20:30",
    "recurrence": "第1月曜",
    "address": "〒176-0012 東京都練馬区豊玉北６丁目１２−１ 練馬区役所本庁舎 (地図",
    "prefecture": "東京都",
    "latitude": 35.7357846,
    "longitude": 139.6517759
  },
  {
    "id": 421,
    "meeting_name": "練馬断酒会　第1例会",
    "next_date": "2026-07-06",
    "start_time": "18:30",
    "end_time": "20:30",
    "recurrence": "第1月曜",
    "address": "豊玉北６丁目１２−１, 日本、〒176-0012 東京都練馬区豊玉北６丁目１２−１ 練馬区役所本庁舎 (地図",
    "prefecture": "東京都",
    "latitude": 35.7357846,
    "longitude": 139.6517759
  },
  {
    "id": 168,
    "meeting_name": "済生会鴻巣病院例会",
    "next_date": "2026-07-06",
    "start_time": "19:00",
    "end_time": "21:00",
    "recurrence": "第1・第3月曜",
    "address": "鴻巣市八幡田849",
    "prefecture": "埼玉県",
    "latitude": 36.0730901,
    "longitude": 139.5021799
  },
  {
    "id": 168,
    "meeting_name": "済生会鴻巣病院院内",
    "next_date": "2026-07-06",
    "start_time": "19:00",
    "end_time": "21:00",
    "recurrence": "第1・第3月曜",
    "address": "鴻巣市八幡田849",
    "prefecture": "埼玉県",
    "latitude": 36.0730901,
    "longitude": 139.5021799
  },
  {
    "id": 255,
    "meeting_name": "酒害教室",
    "next_date": "2026-07-07",
    "start_time": "14:00",
    "end_time": "16:00",
    "recurrence": "第1・第2火曜",
    "address": "〒277-0004 千葉県柏市柏下６５−１−６５−１",
    "prefecture": "千葉県",
    "latitude": 35.8669173,
    "longitude": 139.9866516
  },
  {
    "id": 80,
    "meeting_name": "相談·質問",
    "next_date": "2026-07-07",
    "start_time": "18:00",
    "end_time": "18:45",
    "recurrence": "第1・第3火曜",
    "address": "〒244-0003 神奈川県横浜市戸塚区戸塚町１２７ 横浜市戸塚センター",
    "prefecture": "神奈川県",
    "latitude": 35.3979389,
    "longitude": 139.5326778
  },
  {
    "id": 2,
    "meeting_name": "品川断酒会　例会",
    "next_date": "2026-07-07",
    "start_time": "18:30",
    "end_time": "20:30",
    "recurrence": "第1火曜",
    "address": "〒142-0043 東京都品川区二葉１丁目１−１−２",
    "prefecture": "東京都",
    "latitude": 35.6082279,
    "longitude": 139.7259931
  },