[
  {
    "id": 100,
    "event_id": "4m2j068b3bniogm4545uevcvbv_R20260516T034500@google.com",
    "meeting_name": "相談·質問",
    "next_date": "2026-06-20",
    "start_time": "12:45",
    "end_time": "13:30",
    "prefecture": "神奈川県",
    "address": "伊勢原市田中２９７",
    "latitude": 35.4021262,
    "longitude": 139.3148034
  },
  {
    "id": 100,
    "event_id": "7ob01spi3f4u6n8iojbj8k8qnm_R20260516T043000@google.com",
    "meeting_name": "伊勢原例会",
    "next_date": "2026-06-20",
    "start_time": "13:30",
    "end_time": "15:30",
    "prefecture": "神奈川県",
    "address": "伊勢原市田中２９７",
    "latitude": 35.4021262,
    "longitude": 139.3148034
  },
  {
    "id": 15,
    "event_id": "cck0daus1ioucqgd5c1aqrrvos@google.com",
    "meeting_name": "西武断酒会　若葉会",
    "next_date": "2026-06-20",
    "start_time": "14:00",
    "end_time": "16:00",
    "prefecture": "東京都",
    "address": "東京都武蔵野市西久保１丁目２３−７ 西久保コミュニティセンター",
    "latitude": 35.706036,
    "longitude": 139.5568566
  },
  {
    "id": 283,
    "event_id": "57pbsotm1agvuj1sjqg8l64bco@google.com",
    "meeting_name": "江戸川断酒会　第２例会",
    "next_date": "2026-06-20",
    "start_time": "18:30",
    "end_time": "20:30",
    "prefecture": "東京都",
    "address": "東京都江戸川区船堀４丁目１−１",
    "latitude": 35.6842543,
    "longitude": 139.8648859
  },
  {
    "id": 422,
    "event_id": "rnqoe3dt6pg2uq7tomjqktrb44@google.com",
    "meeting_name": "練馬断酒会　第２例会",
    "next_date": "2026-06-20",
    "start_time": "18:30",
    "end_time": "20:30",
    "prefecture": "東京都",
    "address": "東京都練馬区北町８丁目２８−１０ 練馬区立北町地域集会所",
    "latitude": 35.7677151,
    "longitude": 139.6496689
  },
  {
    "id": 170,
    "event_id": "c6cteabu57b8nqp9bakvps5kh0_R20231118T094500@google.com",
    "meeting_name": "例会",
    "next_date": "2026-06-20",
    "start_time": "18:45",
    "end_time": "20:30",
    "prefecture": "神奈川県",
    "address": "神奈川県茅ヶ崎市新栄町１２−１２ 茅ヶ崎トラスト",
    "latitude": 35.332342,
    "longitude": 139.4046304
  },
  {
    "id": 96,
    "event_id": "76o470jefhrdnd88k6u7fsipt9@google.com",
    "meeting_name": "高津市民館例会　高津市民館　第6会議室",
    "next_date": "2026-06-20",
    "start_time": "19:00",
    "end_time": "20:45",
    "prefecture": "神奈川県",
    "address": "神奈川県川崎市高津区溝口１丁目４−１ ノクティ２ １１Ｆ・１２Ｆ",
    "latitude": 35.5992207,
    "longitude": 139.6127035
  },
  {
    "id": 415,
    "event_id": "suan4lnp188fkuprp8o6acql08@google.com",
    "meeting_name": "新宿断酒会　第１例会",
    "next_date": "2026-06-21",
    "start_time": "10:00",
    "end_time": "11:30",
    "prefecture": "東京都",
    "address": "東京都新宿区大久保３丁目７−４２ 大久保スポーツプラザ",
    "latitude": 35.7064806,
    "longitude": 139.7019513
  },
  {
    "id": 241,
    "event_id": "6mfqhpavpfi78g4f1jfmk5k8v6@google.com",
    "meeting_name": "●立川家族会",
    "next_date": "2026-06-21",
    "start_time": "14:00",
    "end_time": "16:00",
    "prefecture": "東京都",
    "address": "東京都立川市柴崎町２丁目１５−８",
    "latitude": 35.694704,
    "longitude": 139.4080884
  },
  {
    "id": 241,
    "event_id": "0jtechbqutvfhpf7f5b405na9p@google.com",
    "meeting_name": "●立川本部例会",
    "next_date": "2026-06-21",
    "start_time": "14:00",
    "end_time": "16:00",
    "prefecture": "東京都",
    "address": "東京都立川市柴崎町２丁目１５−８",
    "latitude": 35.694704,
    "longitude": 139.4080884
  },
  {
    "id": 102,
    "event_id": "rcnneb96rlou08jfrrg9badc7v_R20260412T090000@google.com",
    "meeting_name": "オンライン例会 Zoom",
    "next_date": "2026-06-21",
    "start_time": "18:00",
    "end_time": "20:00",
    "prefecture": "神奈川県",
    "address": "",
    "latitude": 35.4913535,
    "longitude": 139.284143
  },
  {
    "id": 2,
    "event_id": "45fetagn5t2jov48nae14rceq8@google.com",
    "meeting_name": "品川断酒会　家族会",
    "next_date": "2026-06-22",
    "start_time": "18:30",
    "end_time": "20:30",
    "prefecture": "東京都",
    "address": "東京都品川区二葉１丁目１−１−２",
    "latitude": 35.6082279,
    "longitude": 139.7259931
  },
  {
    "id": 95,
    "event_id": "6cbubao8ocoslnbe61s9rh3q8j@google.com",
    "meeting_name": "宮前例会　宮前区保健福祉センター１階　健診ホール",
    "next_date": "2026-06-22",
    "start_time": "19:00",
    "end_time": "20:45",
    "prefecture": "神奈川県",
    "address": "神奈川県川崎市宮前区宮前平２丁目２０−５",
    "latitude": 35.5892143,
    "longitude": 139.5786927
  },
  {
    "id": 6,
    "event_id": "khbkjtaon0lq1uhft5c746c95o@google.com",
    "meeting_name": "ハートボックス",
    "next_date": "2026-06-23",
    "start_time": "13:30",
    "end_time": "15:30",
    "prefecture": "東京都",
    "address": "東京都港区芝５丁目１８−２ 都営芝五丁目",
    "latitude": 35.6482637,
    "longitude": 139.7483749
  },
  {
    "id": 98,
    "event_id": "a0g69bf6c460opnln20cem10mt_R20260623T090000@google.com",
    "meeting_name": "相談·質問",
    "next_date": "2026-06-23",
    "start_time": "18:00",
    "end_time": "18:45",
    "prefecture": "神奈川県",
    "address": "平塚市見附町1-8  崇善公民館2階",
    "latitude": 35.3290681,
    "longitude": 139.3440372
  },
  {
    "id": 454,
    "event_id": "mgerll39vilg5dh0v49sv9olnc@google.com",
    "meeting_name": "江東断酒会　第２例会",
    "next_date": "2026-06-23",
    "start_time": "18:30",
    "end_time": "20:45",
    "prefecture": "東京都",
    "address": "東京都江東区大島４丁目５−１",
    "latitude": 35.6901,
    "longitude": 139.8197
  },
  {
    "id": 98,
    "event_id": "po3e3rrbpgu6ri9fd9nphvksbg_R20260623T094500@google.com",
    "meeting_name": "平塚例会",
    "next_date": "2026-06-23",
    "start_time": "18:45",
    "end_time": "20:30",
    "prefecture": "神奈川県",
    "address": "平塚市見附町1-8  崇善公民館2階",
    "latitude": 35.3290681,
    "longitude": 139.3440372
  },
  {
    "id": 247,
    "event_id": "63pocvjqnjfe7egrcqgaajgis4@google.com",
    "meeting_name": "●立川酒害相談",
    "next_date": "2026-06-24",
    "start_time": "13:00",
    "end_time": "16:00",
    "prefecture": "東京都",
    "address": "東京都立川市富士見町２丁目３６−４７",
    "latitude": 35.7012732,
    "longitude": 139.4019165
  },
  {
    "id": 454,
    "event_id": "ja926bmrthfe4a1c1sp7gpifuk@google.com",
    "meeting_name": "アメシスト　第２例会",
    "next_date": "2026-06-24",
    "start_time": "13:30",
    "end_time": "15:00",
    "prefecture": "東京都",
    "address": "東京都江東区大島４丁目５−１",
    "latitude": 35.6901,
    "longitude": 139.8197
  },
  {
    "id": 34,
    "event_id": "mak35r4op06hjg5millvan2jlo@google.com",
    "meeting_name": "指針と規範勉強会",
    "next_date": "2026-06-24",
    "start_time": "18:30",
    "end_time": "20:30",
    "prefecture": "東京都",
    "address": "東京都中央区日本橋小伝馬町５−１",
    "latitude": 35.6909163,
    "longitude": 139.7770622
  },
  {
    "id": 411,
    "event_id": "c7ds6aiv8e2494tcskfj3u7p5k@google.com",
    "meeting_name": "京王断酒会　調布第４懇談会",
    "next_date": "2026-06-24",
    "start_time": "18:30",
    "end_time": "20:30",
    "prefecture": "東京都",
    "address": "",
    "latitude": 35.6764225,
    "longitude": 139.650027
  },
  {
    "id": 117,
    "event_id": "6chrooucj13eobr2gkv50rf1mf@google.com",
    "meeting_name": "例会",
    "next_date": "2026-06-24",
    "start_time": "19:00",
    "end_time": "21:00",
    "prefecture": "神奈川県",
    "address": "神奈川県小田原市酒匂２丁目３２−１６",
    "latitude": 35.268425,
    "longitude": 139.1849158
  },
  {
    "id": 117,
    "event_id": "0ugf2umhl4838j7lsa2r53gl6u@google.com",
    "meeting_name": "家族会",
    "next_date": "2026-06-24",
    "start_time": "19:00",
    "end_time": "21:00",
    "prefecture": "神奈川県",
    "address": "神奈川県小田原市酒匂２丁目３２−１６",
    "latitude": 35.268425,
    "longitude": 139.1849158
  },
  {
    "id": 44,
    "event_id": "sdfe911d9g1u8m1bsq9huie038@google.com",
    "meeting_name": "MM豊洲",
    "next_date": "2026-06-24",
    "start_time": "19:30",
    "end_time": "21:30",
    "prefecture": "東京都",
    "address": "東京都江東区豊洲２丁目２−１８",
    "latitude": 35.6542788,
    "longitude": 139.7952583
  },
  {
    "id": 407,
    "event_id": "02dscij25rq6oklvdci74up2g0@google.com",
    "meeting_name": "白菊家族会",
    "next_date": "2026-06-25",
    "start_time": "13:00",
    "end_time": "15:00",
    "prefecture": "東京都",
    "address": "東京都豊島区西池袋２丁目３７−４ Ike･Biz としま産業振興プラザ",
    "latitude": 35.7277303,
    "longitude": 139.706734
  },
  {
    "id": 6,
    "event_id": "25f6knj9s19ofb1r7plsi31gcs@google.com",
    "meeting_name": "港断酒会　懇談会",
    "next_date": "2026-06-25",
    "start_time": "18:30",
    "end_time": "20:00",
    "prefecture": "東京都",
    "address": "東京都港区芝５丁目１８−２ 都営芝五丁目",
    "latitude": 35.6482637,
    "longitude": 139.7483749
  },
  {
    "id": 23,
    "event_id": "fvkuln64t5aonumf08tjs1acco@google.com",
    "meeting_name": "墨田断酒会　第２例会",
    "next_date": "2026-06-25",
    "start_time": "18:30",
    "end_time": "20:30",
    "prefecture": "東京都",
    "address": "東京都墨田区両国２丁目２０−１２ ライオンズステーションプラザ両国 １０１",
    "latitude": 35.6953018,
    "longitude": 139.7926487
  },
  {
    "id": 10,
    "event_id": "t07ru4tp6ejobakn9c8mb4r2sk@google.com",
    "meeting_name": "世田谷断酒会　五心会",
    "next_date": "2026-06-25",
    "start_time": "18:30",
    "end_time": "20:30",
    "prefecture": "東京都",
    "address": "東京都世田谷区太子堂１丁目１４−２０ 世田谷区立太子堂区民センター",
    "latitude": 35.6428861,
    "longitude": 139.6736244
  },
  {
    "id": 72,
    "event_id": "74oj0cb6cko66b9ichgj2b9k68ojabb1c4sj6bb160s3ic9j6sr66c3570@google.com",
    "meeting_name": "旭支部",
    "next_date": "2026-06-25",
    "start_time": "18:30",
    "end_time": "20:00",
    "prefecture": "神奈川県",
    "address": "神奈川県横浜市旭区二俣川２丁目５０−１４ コプレ二俣川 商業・業務棟 6F",
    "latitude": 35.4631654,
    "longitude": 139.5326339
  },
  {
    "id": 244,
    "event_id": "1617la40hose7mmto8o0hki4c1@google.com",
    "meeting_name": "■八王子例会",
    "next_date": "2026-06-25",
    "start_time": "19:00",
    "end_time": "21:00",
    "prefecture": "東京都",
    "address": "東京都八王子市東町５−６",
    "latitude": 35.658532,
    "longitude": 139.3399542
  },
  {
    "id": 6,
    "event_id": "oa1q1uah4cmdehdol3ij8olupc@google.com",
    "meeting_name": "ハートボックス",
    "next_date": "2026-06-26",
    "start_time": "13:30",
    "end_time": "15:30",
    "prefecture": "東京都",
    "address": "東京都港区芝５丁目１８−２ 都営芝五丁目",
    "latitude": 35.6482637,
    "longitude": 139.7483749
  },
  {
    "id": 252,
    "event_id": "46119k71lq24besqcstfupfm7f@google.com",
    "meeting_name": "●福生例会",
    "next_date": "2026-06-26",
    "start_time": "14:00",
    "end_time": "16:00",
    "prefecture": "東京都",
    "address": "東京都福生市福生２４５５",
    "latitude": 35.7339173,
    "longitude": 139.3378396
  },
  {
    "id": 454,
    "event_id": "fe3q7pre3na7qcpbqk8birs69c@google.com",
    "meeting_name": "幹事会",
    "next_date": "2026-06-26",
    "start_time": "19:00",
    "end_time": "20:30",
    "prefecture": "東京都",
    "address": "東京都江東区大島４丁目５−１",
    "latitude": 35.6901,
    "longitude": 139.8197
  },
  {
    "id": 370,
    "event_id": "64efog16b4mhff7nkdljkccm7s@google.com",
    "meeting_name": "●■連合合同例会",
    "next_date": "2026-06-26",
    "start_time": "19:00",
    "end_time": "21:00",
    "prefecture": "東京都",
    "address": "東京都国立市富士見台２丁目３８−５",
    "latitude": 35.687467166727785,
    "longitude": 139.44450371547399
  },
  {
    "id": 88,
    "event_id": "6rll5t9i5rciit8adero7mlv65@google.com",
    "meeting_name": "多摩市民館例会　多摩市民館　第５会議室",
    "next_date": "2026-06-26",
    "start_time": "19:00",
    "end_time": "20:45",
    "prefecture": "神奈川県",
    "address": "神奈川県川崎市多摩区登戸１７７５−１",
    "latitude": 35.6194623,
    "longitude": 139.562151
  },
  {
    "id": 110,
    "event_id": "6n73vv86hpmlg2j733dcdka5qn@google.com",
    "meeting_name": "本部例会",
    "next_date": "2026-06-26",
    "start_time": "19:00",
    "end_time": "20:15",
    "prefecture": "神奈川県",
    "address": "神奈川県横須賀市西逸見町１丁目１−３８−１１",
    "latitude": 35.2842547,
    "longitude": 139.6521476
  },
  {
    "id": 119,
    "event_id": "6767a505odvilv73d5rrbq3rf1_R20260227T100000@google.com",
    "meeting_name": "葉山例会",
    "next_date": "2026-06-26",
    "start_time": "19:00",
    "end_time": "20:30",
    "prefecture": "神奈川県",
    "address": "神奈川県三浦郡葉山町堀内２２２０ 葉山町福祉文化会館",
    "latitude": 35.273019,
    "longitude": 139.587036
  },
  {
    "id": 71,
    "event_id": "6hhjcdj168rm4b9o6ksm2b9k6opjcbb26osj2b9m70p34c1g60q6aeb6co@google.com",
    "meeting_name": "アメシスト例会(女性限定)",
    "next_date": "2026-06-27",
    "start_time": "13:00",
    "end_time": "15:00",
    "prefecture": "神奈川県",
    "address": "神奈川県横浜市神奈川区鶴屋町２丁目２４−２",
    "latitude": 35.4684095,
    "longitude": 139.6207449
  },
  {
    "id": 15,
    "event_id": "6l5qqhpfbojj0do1bahvktlsag@google.com",
    "meeting_name": "西武断酒会　例会",
    "next_date": "2026-06-27",
    "start_time": "14:00",
    "end_time": "16:00",
    "prefecture": "東京都",
    "address": "東京都武蔵野市西久保１丁目２３−７ 西久保コミュニティセンター",
    "latitude": 35.706036,
    "longitude": 139.5568566
  },
  {
    "id": 417,
    "event_id": "2lev75tnr9ptrfg1ra4lao3hlk@google.com",
    "meeting_name": "台東断酒会　例会",
    "next_date": "2026-06-27",
    "start_time": "18:30",
    "end_time": "20:30",
    "prefecture": "東京都",
    "address": "東京都台東区根岸５丁目１８−１３",
    "latitude": 35.7290503,
    "longitude": 139.7904743
  },
  {
    "id": 36,
    "event_id": "9vimpednmjaog8icr78p8ltcfg@google.com",
    "meeting_name": "葛飾断酒会　第２例会",
    "next_date": "2026-06-27",
    "start_time": "18:30",
    "end_time": "20:30",
    "prefecture": "東京都",
    "address": "東京都葛飾区立石３丁目１２−１",
    "latitude": 35.7400582,
    "longitude": 139.8436094
  },
  {
    "id": 259,
    "event_id": "4mo7pgv24vnd1g1uk6vio0iq80@google.com",
    "meeting_name": "野田例会",
    "next_date": "2026-06-27",
    "start_time": "18:30",
    "end_time": "20:30",
    "prefecture": "千葉県",
    "address": "千葉県野田市鶴奉5ー1",
    "latitude": 35.9566619,
    "longitude": 139.8731574
  },
  {
    "id": 90,
    "event_id": "5gafn5j1vtfcp2kot9eotr7r32@google.com",
    "meeting_name": "つばき家族会　中原市民館　第３会議室",
    "next_date": "2026-06-27",
    "start_time": "19:00",
    "end_time": "20:45",
    "prefecture": "神奈川県",
    "address": "神奈川県川崎市中原区新丸子東３丁目１１００−１２",
    "latitude": 35.5748787,
    "longitude": 139.6604338
  },
  {
    "id": 90,
    "event_id": "266ejui8rvuk6i1f2ugh1pgm9l@google.com",
    "meeting_name": "中原市民館例会　中原市民館　第４会議室",
    "next_date": "2026-06-27",
    "start_time": "19:00",
    "end_time": "20:45",
    "prefecture": "神奈川県",
    "address": "神奈川県川崎市中原区新丸子東３丁目１１００−１２",
    "latitude": 35.5748787,
    "longitude": 139.6604338
  }
]