[
  {
    "id": 370,
    "event_id": "74ejvctm5su9vmlq24agto3hgn@google.com",
    "meeting_name": "●■連合/多摩総会",
    "next_date": "2026-06-14",
    "start_time": "13:00",
    "end_time": "14:00",
    "prefecture": "東京都",
    "address": "東京都国立市富士見台２丁目３８−５",
    "latitude": 35.687467166727785,
    "longitude": 139.44450371547399
  },
  {
    "id": 167,
    "event_id": "e5uop1mn8p61vbih9gm1bmav44_R20260405T040000@google.com",
    "meeting_name": "【日程変更】秩父断酒会",
    "next_date": "2026-06-14",
    "start_time": "13:00",
    "end_time": "15:00",
    "prefecture": "埼玉県",
    "address": "秩父市上宮地町27-5",
    "latitude": 36.0026892,
    "longitude": 139.0906726
  },
  {
    "id": 71,
    "event_id": "45j0grragbnpb7tafos67mm9b6@google.com",
    "meeting_name": "合同例会",
    "next_date": "2026-06-14",
    "start_time": "13:00",
    "end_time": "15:30",
    "prefecture": "神奈川県",
    "address": "神奈川県横浜市神奈川区鶴屋町２丁目２４−２",
    "latitude": 35.4684095,
    "longitude": 139.6207449
  },
  {
    "id": 454,
    "event_id": "2puel4nsdanfrthkqn816mjogo@google.com",
    "meeting_name": "江東(家族だけの会）",
    "next_date": "2026-06-14",
    "start_time": "13:30",
    "end_time": "15:30",
    "prefecture": "東京都",
    "address": "東京都江東区大島４丁目５−１",
    "latitude": 35.6901,
    "longitude": 139.8197
  },
  {
    "id": 9,
    "event_id": "juhr31elsoproobe3ljul6kfb0@google.com",
    "meeting_name": "世田谷断酒会　例会",
    "next_date": "2026-06-14",
    "start_time": "14:00",
    "end_time": "16:00",
    "prefecture": "東京都",
    "address": "東京都世田谷区経堂３丁目３７−１３",
    "latitude": 35.651765,
    "longitude": 139.632168
  },
  {
    "id": 370,
    "event_id": "03kag86ljsh28efip2sdfk8ggl@google.com",
    "meeting_name": "■多摩本部例会",
    "next_date": "2026-06-14",
    "start_time": "14:00",
    "end_time": "16:00",
    "prefecture": "東京都",
    "address": "東京都国立市富士見台２丁目３８−５",
    "latitude": 35.687467166727785,
    "longitude": 139.44450371547399
  },
  {
    "id": 370,
    "event_id": "1o9bopkppavge8br59ma245dhp@google.com",
    "meeting_name": "■多摩家族会",
    "next_date": "2026-06-14",
    "start_time": "14:00",
    "end_time": "16:00",
    "prefecture": "東京都",
    "address": "東京都国立市富士見台２丁目３８−５",
    "latitude": 35.687467166727785,
    "longitude": 139.44450371547399
  },
  {
    "id": 102,
    "event_id": "rcnneb96rlou08jfrrg9badc7v_R20260412T090000@google.com",
    "meeting_name": "オンライン例会 Zoom",
    "next_date": "2026-06-14",
    "start_time": "18:00",
    "end_time": "20:00",
    "prefecture": "神奈川県",
    "address": "",
    "latitude": 35.4913535,
    "longitude": 139.284143
  },
  {
    "id": 454,
    "event_id": "nc0pt7sneg79foqjq59130sb5g@google.com",
    "meeting_name": "特定非営利活動法人　東京断酒新生会　総会",
    "next_date": "2026-06-14",
    "start_time": "18:30",
    "end_time": "20:30",
    "prefecture": "東京都",
    "address": "東京都江東区大島４丁目５−１",
    "latitude": 35.6901,
    "longitude": 139.8197
  },
  {
    "id": 141,
    "event_id": "41i6c55ij918769r42kcsb8moe@google.com",
    "meeting_name": "【日程変更】川越例会 ← １３日(土)から変更",
    "next_date": "2026-06-14",
    "start_time": "19:00",
    "end_time": "21:00",
    "prefecture": "埼玉県",
    "address": "川越市藤間27-1",
    "latitude": 35.8859582,
    "longitude": 139.4965871
  },
  {
    "id": 162,
    "event_id": "5u7ohknq34n6oc9pehbs1s01fm@google.com",
    "meeting_name": "【日程変更】西部家族会 ← １３日(土)から変更",
    "next_date": "2026-06-14",
    "start_time": "19:00",
    "end_time": "21:00",
    "prefecture": "埼玉県",
    "address": "埼玉県熊谷市仲町19",
    "latitude": 36.1475166,
    "longitude": 139.3829333
  },
  {
    "id": 38,
    "event_id": "kt8fmd4bopa88701ul8fpdvll4@google.com",
    "meeting_name": "新宿断酒会　第２例会",
    "next_date": "2026-06-15",
    "start_time": "18:00",
    "end_time": "19:30",
    "prefecture": "東京都",
    "address": "東京都新宿区高田馬場２丁目１８−１ 新宿区戸塚特別出張所等区民施設",
    "latitude": 35.7144575,
    "longitude": 139.7051045
  },
  {
    "id": 446,
    "event_id": "bvi1pglpu327hesdq7m6sco4ds@google.com",
    "meeting_name": "杉並断酒会　懇談会",
    "next_date": "2026-06-15",
    "start_time": "19:00",
    "end_time": "20:30",
    "prefecture": "東京都",
    "address": "東京都杉並区阿佐谷南１丁目４７−１７",
    "latitude": 35.7047,
    "longitude": 139.6364
  },
  {
    "id": 6,
    "event_id": "m6qv171ra9tb8qma7okgesqt9s@google.com",
    "meeting_name": "ハートボックス",
    "next_date": "2026-06-16",
    "start_time": "13:30",
    "end_time": "15:30",
    "prefecture": "東京都",
    "address": "東京都港区芝５丁目１８−２ 都営芝五丁目",
    "latitude": 35.6482637,
    "longitude": 139.7483749
  },
  {
    "id": 98,
    "event_id": "6q9281dd58jba24fn9m7osgsr8_R20260616T090000@google.com",
    "meeting_name": "相談·質問📱090-6656-4355 保坂(今です!）slowhand-1955-y@outlook.jp",
    "next_date": "2026-06-16",
    "start_time": "18:00",
    "end_time": "18:45",
    "prefecture": "神奈川県",
    "address": "平塚市見附町1-8  崇善公民館2階",
    "latitude": 35.3290681,
    "longitude": 139.3440372
  },
  {
    "id": 407,
    "event_id": "fdnmaraj2smbvsr6d78tvko1i4@google.com",
    "meeting_name": "白菊家族会(夜）",
    "next_date": "2026-06-16",
    "start_time": "18:30",
    "end_time": "20:30",
    "prefecture": "東京都",
    "address": "東京都豊島区西池袋２丁目３７−４ Ike･Biz としま産業振興プラザ",
    "latitude": 35.7277303,
    "longitude": 139.706734
  },
  {
    "id": 98,
    "event_id": "gj5231ph5avr85f0atqi9dtaua_R20260616T094500@google.com",
    "meeting_name": "平塚例会📱090-6656-4355 保坂(今です!）slowhand-1955-y@outlook.jp",
    "next_date": "2026-06-16",
    "start_time": "18:45",
    "end_time": "20:30",
    "prefecture": "神奈川県",
    "address": "平塚市見附町1-8  崇善公民館2階",
    "latitude": 35.3290681,
    "longitude": 139.3440372
  },
  {
    "id": 110,
    "event_id": "72091so729e7pu15j4vjl17t7s@google.com",
    "meeting_name": "中央支部例会",
    "next_date": "2026-06-16",
    "start_time": "19:00",
    "end_time": "20:15",
    "prefecture": "神奈川県",
    "address": "神奈川県横須賀市西逸見町１丁目１−３８−１１",
    "latitude": 35.2842547,
    "longitude": 139.6521476
  },
  {
    "id": 297,
    "event_id": "4ue4c6e06edke7qn4v5bn74j0i@google.com",
    "meeting_name": "●福生酒害相談",
    "next_date": "2026-06-17",
    "start_time": "13:00",
    "end_time": "16:00",
    "prefecture": "東京都",
    "address": "東京都福生市福生１０１４−１０",
    "latitude": 35.7422623,
    "longitude": 139.3276923
  },
  {
    "id": 71,
    "event_id": "0r756dbmiu45miqk9rc1q58aes@google.com",
    "meeting_name": "神断連昼例会(川崎担当)　県民センター7階",
    "next_date": "2026-06-17",
    "start_time": "13:00",
    "end_time": "14:30",
    "prefecture": "神奈川県",
    "address": "神奈川県横浜市神奈川区鶴屋町２丁目２４−２",
    "latitude": 35.4684095,
    "longitude": 139.6207449
  },
  {
    "id": 64,
    "event_id": "bem70p23f29f1fkndoft7p0p98_R20260617T043000@google.com",
    "meeting_name": "【会場変更】埼玉中央【浦和昼例会】",
    "next_date": "2026-06-17",
    "start_time": "13:30",
    "end_time": "15:00",
    "prefecture": "埼玉県",
    "address": "埼玉県さいたま市浦和区常盤９丁目３０−２２",
    "latitude": 35.8711464,
    "longitude": 139.6428014
  },
  {
    "id": 26,
    "event_id": "8dkjgrcglkc1snmh0rdlgmnhdo@google.com",
    "meeting_name": "北断酒会　第２例会",
    "next_date": "2026-06-17",
    "start_time": "18:30",
    "end_time": "20:30",
    "prefecture": "東京都",
    "address": "東京都北区中十条１丁目２−１８",
    "latitude": 35.7576949,
    "longitude": 139.729642
  },
  {
    "id": 411,
    "event_id": "dgp8gct6ptq2vq569hhsrpooa0@google.com",
    "meeting_name": "京王断酒会　調布第３懇談会",
    "next_date": "2026-06-17",
    "start_time": "18:30",
    "end_time": "20:30",
    "prefecture": "東京都",
    "address": "",
    "latitude": 35.6764225,
    "longitude": 139.650027
  },
  {
    "id": 248,
    "event_id": "41fa7tjl8bdg9598ffo4dlfe13@google.com",
    "meeting_name": "■国分寺例会",
    "next_date": "2026-06-17",
    "start_time": "19:00",
    "end_time": "21:00",
    "prefecture": "東京都",
    "address": "東京都国分寺市本多１丁目７−１",
    "latitude": 35.7053251,
    "longitude": 139.4825249
  },
  {
    "id": 137,
    "event_id": "2ko9omjv1clkucjqt87vg0980f_R20250521T100000@google.com",
    "meeting_name": "【日程変更】西部本部例会 → １９日(金)へ変更",
    "next_date": "2026-06-17",
    "start_time": "19:00",
    "end_time": "21:00",
    "prefecture": "埼玉県",
    "address": "富士見市針ヶ谷1-38",
    "latitude": 35.8320496,
    "longitude": 139.5539752
  },
  {
    "id": 117,
    "event_id": "7m5pq8nfj7ca04ntg208uu2ahe@google.com",
    "meeting_name": "合同例会",
    "next_date": "2026-06-17",
    "start_time": "19:00",
    "end_time": "21:00",
    "prefecture": "神奈川県",
    "address": "神奈川県小田原市酒匂２丁目３２−１６",
    "latitude": 35.268425,
    "longitude": 139.1849158
  },
  {
    "id": 16,
    "event_id": "8fir105jcmps5gvodajjj6tumg@google.com",
    "meeting_name": "足立断酒会　第2例会",
    "next_date": "2026-06-18",
    "start_time": "18:30",
    "end_time": "20:30",
    "prefecture": "東京都",
    "address": "東京都足立区竹の塚２丁目２５−１７",
    "latitude": 35.7925227,
    "longitude": 139.7950596
  },
  {
    "id": 412,
    "event_id": "jkfgsvc1gq00bdijjh24log9is@google.com",
    "meeting_name": "世田谷断酒会　砧懇談会",
    "next_date": "2026-06-18",
    "start_time": "18:30",
    "end_time": "20:30",
    "prefecture": "東京都",
    "address": "東京都世田谷区成城６丁目２−１",
    "latitude": 35.6412777,
    "longitude": 139.600756
  },
  {
    "id": 404,
    "event_id": "pq1t4ksc6lhc6c04b4pfl8aq48@google.com",
    "meeting_name": "目黒断酒会　例会",
    "next_date": "2026-06-18",
    "start_time": "19:00",
    "end_time": "20:30",
    "prefecture": "東京都",
    "address": "東京都目黒区中央町２丁目４−１８ 中央町さくらプラザ地下1階",
    "latitude": 35.6322333,
    "longitude": 139.691941
  },
  {
    "id": 241,
    "event_id": "3d92jrrtivgq1f9o0rlc9vcgbb@google.com",
    "meeting_name": "●立川第二例会",
    "next_date": "2026-06-18",
    "start_time": "19:00",
    "end_time": "21:00",
    "prefecture": "東京都",
    "address": "東京都立川市柴崎町２丁目１５−８",
    "latitude": 35.694704,
    "longitude": 139.4080884
  },
  {
    "id": 382,
    "event_id": "24dlmpo380jrdpnjltl87v7l72@google.com",
    "meeting_name": "幸市民館例会　幸市民館　第３会議室",
    "next_date": "2026-06-18",
    "start_time": "19:00",
    "end_time": "20:45",
    "prefecture": "神奈川県",
    "address": "神奈川県川崎市幸区戸手本町１丁目１１−２",
    "latitude": 35.5443883,
    "longitude": 139.6875789
  },
  {
    "id": 6,
    "event_id": "s9pgjr41fvv2dv69chtik1tefo@google.com",
    "meeting_name": "ハートボックス",
    "next_date": "2026-06-19",
    "start_time": "13:30",
    "end_time": "15:30",
    "prefecture": "東京都",
    "address": "東京都港区芝５丁目１８−２ 都営芝五丁目",
    "latitude": 35.6482637,
    "longitude": 139.7483749
  },
  {
    "id": 454,
    "event_id": "tkj587720ootufn30a1215o70k@google.com",
    "meeting_name": "江東断酒会　懇談会",
    "next_date": "2026-06-19",
    "start_time": "18:30",
    "end_time": "20:30",
    "prefecture": "東京都",
    "address": "東京都江東区大島４丁目５−１",
    "latitude": 35.6901,
    "longitude": 139.8197
  },
  {
    "id": 410,
    "event_id": "ppjoi2c43ou48fock1arrv4g80@google.com",
    "meeting_name": "大田断酒会　第２例会",
    "next_date": "2026-06-19",
    "start_time": "18:30",
    "end_time": "20:30",
    "prefecture": "東京都",
    "address": "東京都大田区新蒲田１丁目１８−１６",
    "latitude": 35.5574732,
    "longitude": 139.7113395
  },
  {
    "id": 364,
    "event_id": "01feklgu62nvaiafdvjsi9ltko@google.com",
    "meeting_name": "荒川断酒会　家族会",
    "next_date": "2026-06-19",
    "start_time": "19:00",
    "end_time": "20:30",
    "prefecture": "東京都",
    "address": "東京都荒川区東日暮里１丁目１７−",
    "latitude": 35.7300027,
    "longitude": 139.7896524
  },
  {
    "id": 137,
    "event_id": "12cibju7apv50slnr8t1rievv4@google.com",
    "meeting_name": "【日程変更】西部本部例会 ← １７日(水)から変更",
    "next_date": "2026-06-19",
    "start_time": "19:00",
    "end_time": "21:00",
    "prefecture": "埼玉県",
    "address": "富士見市針ヶ谷1-38",
    "latitude": 35.8320496,
    "longitude": 139.5539752
  },
  {
    "id": 113,
    "event_id": "2ifsrfojsg3re9al7mohvsot8p@google.com",
    "meeting_name": "南部久里浜例会",
    "next_date": "2026-06-19",
    "start_time": "19:00",
    "end_time": "20:15",
    "prefecture": "神奈川県",
    "address": "神奈川県横須賀市久里浜６丁目１４−２ 横須賀市久里浜行政センター 2階",
    "latitude": 35.2266507,
    "longitude": 139.7060164
  },
  {
    "id": 120,
    "event_id": "1a3886do14a2vu1t91764l9gfv_R20260220T100000@google.com",
    "meeting_name": "鎌倉本部例会",
    "next_date": "2026-06-19",
    "start_time": "19:00",
    "end_time": "19:45",
    "prefecture": "神奈川県",
    "address": "神奈川県鎌倉市御成町２０−２１",
    "latitude": 35.3170594,
    "longitude": 139.5462249
  },
  {
    "id": 100,
    "event_id": "4m2j068b3bniogm4545uevcvbv_R20260516T034500@google.com",
    "meeting_name": "相談·質問📱090-6656-4355 保坂(今です!）slowhand-1955-y@outlook.jp",
    "next_date": "2026-06-20",
    "start_time": "12:45",
    "end_time": "13:30",
    "prefecture": "神奈川県",
    "address": "伊勢原市田中２９７",
    "latitude": 35.4021262,
    "longitude": 139.3148034
  },
  {
    "id": 100,
    "event_id": "7ob01spi3f4u6n8iojbj8k8qnm_R20260516T043000@google.com",
    "meeting_name": "伊勢原例会📱090-6656-4355 保坂(今です!）slowhand-1955-y@outlook.jp",
    "next_date": "2026-06-20",
    "start_time": "13:30",
    "end_time": "15:30",
    "prefecture": "神奈川県",
    "address": "伊勢原市田中２９７",
    "latitude": 35.4021262,
    "longitude": 139.3148034
  },
  {
    "id": 15,
    "event_id": "cck0daus1ioucqgd5c1aqrrvos@google.com",
    "meeting_name": "西武断酒会　若葉会",
    "next_date": "2026-06-20",
    "start_time": "14:00",
    "end_time": "16:00",
    "prefecture": "東京都",
    "address": "東京都武蔵野市西久保１丁目２３−７ 西久保コミュニティセンター",
    "latitude": 35.706036,
    "longitude": 139.5568566
  },
  {
    "id": 422,
    "event_id": "rnqoe3dt6pg2uq7tomjqktrb44@google.com",
    "meeting_name": "練馬断酒会　第２例会",
    "next_date": "2026-06-20",
    "start_time": "18:30",
    "end_time": "20:30",
    "prefecture": "東京都",
    "address": "東京都練馬区北町８丁目２８−１０ 練馬区立北町地域集会所",
    "latitude": 35.7677151,
    "longitude": 139.6496689
  },
  {
    "id": 283,
    "event_id": "57pbsotm1agvuj1sjqg8l64bco@google.com",
    "meeting_name": "江戸川断酒会　第２例会",
    "next_date": "2026-06-20",
    "start_time": "18:30",
    "end_time": "20:30",
    "prefecture": "東京都",
    "address": "東京都江戸川区船堀４丁目１−１",
    "latitude": 35.6842543,
    "longitude": 139.8648859
  },
  {
    "id": 170,
    "event_id": "c6cteabu57b8nqp9bakvps5kh0_R20231118T094500@google.com",
    "meeting_name": "例会",
    "next_date": "2026-06-20",
    "start_time": "18:45",
    "end_time": "20:30",
    "prefecture": "神奈川県",
    "address": "神奈川県茅ヶ崎市新栄町１２−１２ 茅ヶ崎トラスト",
    "latitude": 35.332342,
    "longitude": 139.4046304
  },
  {
    "id": 96,
    "event_id": "76o470jefhrdnd88k6u7fsipt9@google.com",
    "meeting_name": "高津市民館例会　高津市民館　第6会議室",
    "next_date": "2026-06-20",
    "start_time": "19:00",
    "end_time": "20:45",
    "prefecture": "神奈川県",
    "address": "神奈川県川崎市高津区溝口１丁目４−１ ノクティ２ １１Ｆ・１２Ｆ",
    "latitude": 35.5992207,
    "longitude": 139.6127035
  },
  {
    "id": 415,
    "event_id": "suan4lnp188fkuprp8o6acql08@google.com",
    "meeting_name": "新宿断酒会　第１例会",
    "next_date": "2026-06-21",
    "start_time": "10:00",
    "end_time": "11:30",
    "prefecture": "東京都",
    "address": "東京都新宿区大久保３丁目７−４２ 大久保スポーツプラザ",
    "latitude": 35.7064806,
    "longitude": 139.7019513
  },
  {
    "id": 241,
    "event_id": "6mfqhpavpfi78g4f1jfmk5k8v6@google.com",
    "meeting_name": "●立川家族会",
    "next_date": "2026-06-21",
    "start_time": "14:00",
    "end_time": "16:00",
    "prefecture": "東京都",
    "address": "東京都立川市柴崎町２丁目１５−８",
    "latitude": 35.694704,
    "longitude": 139.4080884
  },
  {
    "id": 241,
    "event_id": "0jtechbqutvfhpf7f5b405na9p@google.com",
    "meeting_name": "●立川本部例会",
    "next_date": "2026-06-21",
    "start_time": "14:00",
    "end_time": "16:00",
    "prefecture": "東京都",
    "address": "東京都立川市柴崎町２丁目１５−８",
    "latitude": 35.694704,
    "longitude": 139.4080884
  }
]