[
  {
    "id": 247,
    "event_id": "63pocvjqnjfe7egrcqgaajgis4@google.com",
    "meeting_name": "●立川酒害相談",
    "next_date": "2026-06-24",
    "start_time": "13:00",
    "end_time": "16:00",
    "prefecture": "東京都",
    "address": "東京都立川市富士見町２丁目３６−４７",
    "latitude": 35.7012732,
    "longitude": 139.4019165
  },
  {
    "id": 5,
    "event_id": "ja926bmrthfe4a1c1sp7gpifuk@google.com",
    "meeting_name": "アメシスト　第２例会",
    "next_date": "2026-06-24",
    "start_time": "13:30",
    "end_time": "15:00",
    "prefecture": "東京都",
    "address": "東京都江東区大島４丁目５−１",
    "latitude": 35.68903580000001,
    "longitude": 139.8269998
  },
  {
    "id": 3,
    "event_id": "c7ds6aiv8e2494tcskfj3u7p5k@google.com",
    "meeting_name": "京王断酒会　調布第４懇談会",
    "next_date": "2026-06-24",
    "start_time": "18:30",
    "end_time": "20:30",
    "prefecture": "東京都",
    "address": "",
    "latitude": 35.752978,
    "longitude": 139.734183
  },
  {
    "id": 22,
    "event_id": "mak35r4op06hjg5millvan2jlo@google.com",
    "meeting_name": "指針と規範勉強会",
    "next_date": "2026-06-24",
    "start_time": "18:30",
    "end_time": "20:30",
    "prefecture": "東京都",
    "address": "中央区立十思スクエア 東京都中央区日本橋小伝馬町５−１ 中央区立十思スクエア等複合施設",
    "latitude": 35.6906221,
    "longitude": 139.7771028
  },
  {
    "id": 117,
    "event_id": "6chrooucj13eobr2gkv50rf1mf@google.com",
    "meeting_name": "例会",
    "next_date": "2026-06-24",
    "start_time": "19:00",
    "end_time": "21:00",
    "prefecture": "神奈川県",
    "address": "神奈川県小田原市酒匂２丁目３２−１６",
    "latitude": 35.268425,
    "longitude": 139.1849158
  },
  {
    "id": 117,
    "event_id": "0ugf2umhl4838j7lsa2r53gl6u@google.com",
    "meeting_name": "家族会",
    "next_date": "2026-06-24",
    "start_time": "19:00",
    "end_time": "21:00",
    "prefecture": "神奈川県",
    "address": "神奈川県小田原市酒匂２丁目３２−１６",
    "latitude": 35.268425,
    "longitude": 139.1849158
  },
  {
    "id": 44,
    "event_id": "sdfe911d9g1u8m1bsq9huie038@google.com",
    "meeting_name": "MM豊洲",
    "next_date": "2026-06-24",
    "start_time": "19:30",
    "end_time": "21:30",
    "prefecture": "東京都",
    "address": "東京都江東区豊洲２丁目２−１８",
    "latitude": 35.6542788,
    "longitude": 139.7952583
  },
  {
    "id": 31,
    "event_id": "02dscij25rq6oklvdci74up2g0@google.com",
    "meeting_name": "白菊家族会",
    "next_date": "2026-06-25",
    "start_time": "13:00",
    "end_time": "15:00",
    "prefecture": "東京都",
    "address": "東京都豊島区西池袋２丁目３７−４ Ike･Biz としま産業振興プラザ",
    "latitude": 35.7277303,
    "longitude": 139.706734
  },
  {
    "id": 6,
    "event_id": "25f6knj9s19ofb1r7plsi31gcs@google.com",
    "meeting_name": "港断酒会　懇談会",
    "next_date": "2026-06-25",
    "start_time": "18:30",
    "end_time": "20:00",
    "prefecture": "東京都",
    "address": "東京都港区芝５丁目１８−２ 都営芝五丁目",
    "latitude": 35.6482637,
    "longitude": 139.7483749
  },
  {
    "id": 23,
    "event_id": "fvkuln64t5aonumf08tjs1acco@google.com",
    "meeting_name": "墨田断酒会　第２例会",
    "next_date": "2026-06-25",
    "start_time": "18:30",
    "end_time": "20:30",
    "prefecture": "東京都",
    "address": "東京都墨田区両国２丁目２０−１２ ライオンズステーションプラザ両国 １０１",
    "latitude": 35.6953018,
    "longitude": 139.7926487
  },
  {
    "id": 10,
    "event_id": "t07ru4tp6ejobakn9c8mb4r2sk@google.com",
    "meeting_name": "世田谷断酒会　五心会",
    "next_date": "2026-06-25",
    "start_time": "18:30",
    "end_time": "20:30",
    "prefecture": "東京都",
    "address": "東京都世田谷区太子堂１丁目１４−２０ 世田谷区立太子堂区民センター",
    "latitude": 35.6428861,
    "longitude": 139.6736244
  },
  {
    "id": 72,
    "event_id": "74oj0cb6cko66b9ichgj2b9k68ojabb1c4sj6bb160s3ic9j6sr66c3570@google.com",
    "meeting_name": "旭支部",
    "next_date": "2026-06-25",
    "start_time": "18:30",
    "end_time": "20:00",
    "prefecture": "神奈川県",
    "address": "神奈川県横浜市旭区二俣川２丁目５０−１４ コプレ二俣川 商業・業務棟 6F",
    "latitude": 35.4631654,
    "longitude": 139.5326339
  },
  {
    "id": 244,
    "event_id": "1617la40hose7mmto8o0hki4c1@google.com",
    "meeting_name": "■八王子例会",
    "next_date": "2026-06-25",
    "start_time": "19:00",
    "end_time": "21:00",
    "prefecture": "東京都",
    "address": "東京都八王子市東町５−６",
    "latitude": 35.658532,
    "longitude": 139.3399542
  },
  {
    "id": 6,
    "event_id": "oa1q1uah4cmdehdol3ij8olupc@google.com",
    "meeting_name": "ハートボックス",
    "next_date": "2026-06-26",
    "start_time": "13:30",
    "end_time": "15:30",
    "prefecture": "東京都",
    "address": "東京都港区芝５丁目１８−２ 都営芝五丁目",
    "latitude": 35.6482637,
    "longitude": 139.7483749
  },
  {
    "id": 252,
    "event_id": "46119k71lq24besqcstfupfm7f@google.com",
    "meeting_name": "●福生例会",
    "next_date": "2026-06-26",
    "start_time": "14:00",
    "end_time": "16:00",
    "prefecture": "東京都",
    "address": "東京都福生市福生２４５５",
    "latitude": 35.7339173,
    "longitude": 139.3378396
  },
  {
    "id": 5,
    "event_id": "fe3q7pre3na7qcpbqk8birs69c@google.com",
    "meeting_name": "幹事会",
    "next_date": "2026-06-26",
    "start_time": "19:00",
    "end_time": "20:30",
    "prefecture": "東京都",
    "address": "東京都江東区大島４丁目５−１",
    "latitude": 35.68903580000001,
    "longitude": 139.8269998
  },
  {
    "id": 370,
    "event_id": "64efog16b4mhff7nkdljkccm7s@google.com",
    "meeting_name": "●■連合合同例会",
    "next_date": "2026-06-26",
    "start_time": "19:00",
    "end_time": "21:00",
    "prefecture": "東京都",
    "address": "東京都国立市富士見台２丁目３８−５",
    "latitude": 35.687467166727785,
    "longitude": 139.44450371547399
  },
  {
    "id": 88,
    "event_id": "6rll5t9i5rciit8adero7mlv65@google.com",
    "meeting_name": "多摩市民館例会　多摩市民館　第５会議室",
    "next_date": "2026-06-26",
    "start_time": "19:00",
    "end_time": "20:45",
    "prefecture": "神奈川県",
    "address": "神奈川県川崎市多摩区登戸１７７５−１",
    "latitude": 35.6194623,
    "longitude": 139.562151
  },
  {
    "id": 110,
    "event_id": "6n73vv86hpmlg2j733dcdka5qn@google.com",
    "meeting_name": "本部例会",
    "next_date": "2026-06-26",
    "start_time": "19:00",
    "end_time": "20:15",
    "prefecture": "神奈川県",
    "address": "神奈川県横須賀市西逸見町１丁目１−３８−１１",
    "latitude": 35.2842547,
    "longitude": 139.6521476
  },
  {
    "id": 119,
    "event_id": "6767a505odvilv73d5rrbq3rf1_R20260227T100000@google.com",
    "meeting_name": "葉山例会",
    "next_date": "2026-06-26",
    "start_time": "19:00",
    "end_time": "20:30",
    "prefecture": "神奈川県",
    "address": "神奈川県三浦郡葉山町堀内２２２０ 葉山町福祉文化会館",
    "latitude": 35.273019,
    "longitude": 139.587036
  },
  {
    "id": 71,
    "event_id": "6hhjcdj168rm4b9o6ksm2b9k6opjcbb26osj2b9m70p34c1g60q6aeb6co@google.com",
    "meeting_name": "アメシスト例会(女性限定)",
    "next_date": "2026-06-27",
    "start_time": "13:00",
    "end_time": "15:00",
    "prefecture": "神奈川県",
    "address": "神奈川県横浜市神奈川区鶴屋町２丁目２４−２",
    "latitude": 35.4684095,
    "longitude": 139.6207449
  },
  {
    "id": 29,
    "event_id": "6l5qqhpfbojj0do1bahvktlsag@google.com",
    "meeting_name": "西武断酒会　例会",
    "next_date": "2026-06-27",
    "start_time": "14:00",
    "end_time": "16:00",
    "prefecture": "東京都",
    "address": "東京都武蔵野市西久保１丁目２３−７ 西久保コミュニティセンター",
    "latitude": 35.706036,
    "longitude": 139.5568566
  },
  {
    "id": 36,
    "event_id": "9vimpednmjaog8icr78p8ltcfg@google.com",
    "meeting_name": "葛飾断酒会　第２例会",
    "next_date": "2026-06-27",
    "start_time": "18:30",
    "end_time": "20:30",
    "prefecture": "東京都",
    "address": "東京都葛飾区立石３丁目１２−１",
    "latitude": 35.7400582,
    "longitude": 139.8436094
  },
  {
    "id": 4,
    "event_id": "2lev75tnr9ptrfg1ra4lao3hlk@google.com",
    "meeting_name": "台東断酒会　例会",
    "next_date": "2026-06-27",
    "start_time": "18:30",
    "end_time": "20:30",
    "prefecture": "東京都",
    "address": "東京都台東区根岸５丁目１８−１３",
    "latitude": 35.7290503,
    "longitude": 139.7904743
  },
  {
    "id": 259,
    "event_id": "4mo7pgv24vnd1g1uk6vio0iq80@google.com",
    "meeting_name": "野田例会",
    "next_date": "2026-06-27",
    "start_time": "18:30",
    "end_time": "20:30",
    "prefecture": "千葉県",
    "address": "千葉県野田市鶴奉5ー1",
    "latitude": 35.9566619,
    "longitude": 139.8731574
  },
  {
    "id": 90,
    "event_id": "5gafn5j1vtfcp2kot9eotr7r32@google.com",
    "meeting_name": "つばき家族会　中原市民館　第３会議室",
    "next_date": "2026-06-27",
    "start_time": "19:00",
    "end_time": "20:45",
    "prefecture": "神奈川県",
    "address": "神奈川県川崎市中原区新丸子東３丁目１１００−１２",
    "latitude": 35.5748787,
    "longitude": 139.6604338
  },
  {
    "id": 90,
    "event_id": "266ejui8rvuk6i1f2ugh1pgm9l@google.com",
    "meeting_name": "中原市民館例会　中原市民館　第４会議室",
    "next_date": "2026-06-27",
    "start_time": "19:00",
    "end_time": "20:45",
    "prefecture": "神奈川県",
    "address": "神奈川県川崎市中原区新丸子東３丁目１１００−１２",
    "latitude": 35.5748787,
    "longitude": 139.6604338
  },
  {
    "id": 21,
    "event_id": "sgd2vimir81oc547t75mqf6k3o@google.com",
    "meeting_name": "京王断酒会　例会",
    "next_date": "2026-06-28",
    "start_time": "13:00",
    "end_time": "15:00",
    "prefecture": "東京都",
    "address": "東京都調布市布田１丁目２９−４",
    "latitude": 35.6533767,
    "longitude": 139.5453749
  },
  {
    "id": 102,
    "event_id": "rcnneb96rlou08jfrrg9badc7v_R20260412T090000@google.com",
    "meeting_name": "オンライン例会 Zoom",
    "next_date": "2026-06-28",
    "start_time": "18:00",
    "end_time": "20:00",
    "prefecture": "神奈川県",
    "address": "",
    "latitude": 35.4913535,
    "longitude": 139.284143
  },
  {
    "id": 1,
    "event_id": "rc7qa4urcov8l960s8h9a07l44@google.com",
    "meeting_name": "荒川断酒会　例会",
    "next_date": "2026-06-29",
    "start_time": "18:30",
    "end_time": "20:30",
    "prefecture": "東京都",
    "address": "東京都荒川区荒川１丁目１−１ 荒川区民会館（サンパール荒川）",
    "latitude": 35.7352073,
    "longitude": 139.78517
  },
  {
    "id": 40,
    "event_id": "ao8oai3qfjt8vp35eji9439pi0@google.com",
    "meeting_name": "杉並断酒会　懇談会",
    "next_date": "2026-06-29",
    "start_time": "19:00",
    "end_time": "20:30",
    "prefecture": "東京都",
    "address": "",
    "latitude": 35.7017573,
    "longitude": 139.6352933
  },
  {
    "id": 244,
    "event_id": "4bp3s5c19ldhpp8ceceq8hhsa3@google.com",
    "meeting_name": "■八王子例会",
    "next_date": "2026-06-30",
    "start_time": "13:00",
    "end_time": "15:00",
    "prefecture": "東京都",
    "address": "東京都八王子市東町５−６",
    "latitude": 35.658532,
    "longitude": 139.3399542
  },
  {
    "id": 6,
    "event_id": "7omtqea55km48rnlakfbout5dg@google.com",
    "meeting_name": "ハートボックス",
    "next_date": "2026-06-30",
    "start_time": "13:30",
    "end_time": "15:30",
    "prefecture": "東京都",
    "address": "東京都港区芝５丁目１８−２ 都営芝五丁目",
    "latitude": 35.6482637,
    "longitude": 139.7483749
  },
  {
    "id": 5,
    "event_id": "bnptma5pdlhf3uqcecrlq2ihk0@google.com",
    "meeting_name": "本部例会",
    "next_date": "2026-06-30",
    "start_time": "19:00",
    "end_time": "20:30",
    "prefecture": "東京都",
    "address": "東京都江東区大島４丁目５−１",
    "latitude": 35.68903580000001,
    "longitude": 139.8269998
  },
  {
    "id": 297,
    "event_id": "72hmgblh9smvks0mhjsf3t5u8b@google.com",
    "meeting_name": "●福生酒害相談",
    "next_date": "2026-07-01",
    "start_time": "13:00",
    "end_time": "16:00",
    "prefecture": "東京都",
    "address": "東京都福生市福生１０１４−１０",
    "latitude": 35.7422623,
    "longitude": 139.3276923
  },
  {
    "id": 71,
    "event_id": "64o3ad9icorjeb9l60oj6b9k64q68b9ocli62b9ic4s3ac9hccqm8c1p74@google.com",
    "meeting_name": "昼例会",
    "next_date": "2026-07-01",
    "start_time": "13:00",
    "end_time": "14:30",
    "prefecture": "神奈川県",
    "address": "神奈川県横浜市神奈川区鶴屋町２丁目２４−２",
    "latitude": 35.4684095,
    "longitude": 139.6207449
  },
  {
    "id": 26,
    "event_id": "4nbrb88hgtbgbmfl5ql10dlc6h@google.com",
    "meeting_name": "北断酒会　第１例会",
    "next_date": "2026-07-01",
    "start_time": "18:30",
    "end_time": "20:30",
    "prefecture": "東京都",
    "address": "東京都北区中十条１丁目２−１８",
    "latitude": 35.7576949,
    "longitude": 139.729642
  },
  {
    "id": 3,
    "event_id": "61o15a5re1tu961tlbqnjgimbg@google.com",
    "meeting_name": "京王断酒会　調布第１懇談会",
    "next_date": "2026-07-01",
    "start_time": "18:30",
    "end_time": "20:30",
    "prefecture": "東京都",
    "address": "",
    "latitude": 35.752978,
    "longitude": 139.734183
  },
  {
    "id": 18,
    "event_id": "0hnmsoqtf50f5afri5rrrqr1ba@google.com",
    "meeting_name": "シングルの集い　１",
    "next_date": "2026-07-01",
    "start_time": "18:30",
    "end_time": "20:30",
    "prefecture": "東京都",
    "address": "",
    "latitude": 35.6911512,
    "longitude": 139.7770967
  },
  {
    "id": 92,
    "event_id": "4j24nt1ir76s0dnj2m0on09mdt@google.com",
    "meeting_name": "川崎例会　川崎区保健福祉センター　パレール　5階　　　　　　　　　　　　　　　　川崎区保健福祉センター　パレール5階",
    "next_date": "2026-07-01",
    "start_time": "19:00",
    "end_time": "20:45",
    "prefecture": "神奈川県",
    "address": "川崎区保健福祉センターパレール5階",
    "latitude": 35.5296778,
    "longitude": 139.7038514
  },
  {
    "id": 112,
    "event_id": "5pjsetl2cttl0ip30of052ffie@google.com",
    "meeting_name": "金沢合同例会",
    "next_date": "2026-07-01",
    "start_time": "19:00",
    "end_time": "20:15",
    "prefecture": "神奈川県",
    "address": "",
    "latitude": 35.3393265,
    "longitude": 139.621596
  },
  {
    "id": 117,
    "event_id": "0k7sj25lcmjrp9gq1vqfnnq0cc@google.com",
    "meeting_name": "合同例会",
    "next_date": "2026-07-01",
    "start_time": "19:00",
    "end_time": "21:00",
    "prefecture": "神奈川県",
    "address": "神奈川県小田原市酒匂２丁目３２−１６",
    "latitude": 35.268425,
    "longitude": 139.1849158
  }
]