[
  {
    "id": 1251,
    "meeting_name": "家族会",
    "next_date": "2026-06-23",
    "start_time": "10:00",
    "end_time": "12:00",
    "recurrence": "第2・第4火曜",
    "address": "津山市田町１１５",
    "prefecture": "岡山県",
    "latitude": 35.063705,
    "longitude": 133.99556
  },
  {
    "id": 806,
    "meeting_name": "朝例会",
    "next_date": "2026-06-23",
    "start_time": "10:00",
    "end_time": "12:00",
    "recurrence": "第2・第4火曜",
    "address": "滋賀県栗東市綣2丁目4-5（JR栗東駅東口徒歩2分）",
    "prefecture": "滋賀県",
    "latitude": 35.037289,
    "longitude": 135.981461
  },
  {
    "id": 1717,
    "meeting_name": "例会",
    "next_date": "2026-06-23",
    "start_time": "13:00",
    "end_time": "15:00",
    "recurrence": "第1・第2・第3・第4・第5火曜",
    "address": "京都府右京区京北周山寺田1-1",
    "prefecture": "京都府",
    "latitude": 35.02124,
    "longitude": 135.755615
  },
  {
    "id": 917,
    "meeting_name": "堺地域",
    "next_date": "2026-06-23",
    "start_time": "13:00",
    "end_time": "15:00",
    "recurrence": "第4火曜",
    "address": "大阪府堺市堺区南瓦町2-1",
    "prefecture": "大阪府",
    "latitude": 34.573563,
    "longitude": 135.479965
  },
  {
    "id": 1251,
    "meeting_name": "希望ヶ丘ホスピタル例会",
    "next_date": "2026-06-23",
    "start_time": "13:00",
    "end_time": "15:00",
    "recurrence": "第2・第4火曜",
    "address": "津山市田町１１５",
    "prefecture": "岡山県",
    "latitude": 35.063705,
    "longitude": 133.99556
  },
  {
    "id": 1717,
    "meeting_name": "北桑",
    "next_date": "2026-06-23",
    "start_time": "13:00:00",
    "end_time": "15:00:00",
    "recurrence": "毎週火曜",
    "address": "京都府右京区京北周山寺田1-1",
    "prefecture": "京都府",
    "latitude": 35.02124,
    "longitude": 135.755615
  },
  {
    "id": 1718,
    "meeting_name": "北桑",
    "next_date": "2026-06-23",
    "start_time": "13:00:00",
    "end_time": "15:00:00",
    "recurrence": "毎週火曜",
    "address": "京都府右京区京北下中町東石原8-2",
    "prefecture": "京都府",
    "latitude": 35.02124,
    "longitude": 135.755615
  },
  {
    "id": 1240,
    "meeting_name": "仲間のつどい",
    "next_date": "2026-06-23",
    "start_time": "13:30",
    "end_time": "15:30",
    "recurrence": "第2・第4火曜",
    "address": "岡山県和気郡和気町尺所７−１",
    "prefecture": "岡山県",
    "latitude": 34.802071,
    "longitude": 134.159393
  },
  {
    "id": 6,
    "meeting_name": "ハートボックス",
    "next_date": "2026-06-23",
    "start_time": "13:30",
    "end_time": "15:30",
    "recurrence": "第4火曜",
    "address": "〒108-0014 東京都港区芝５丁目１８−２ 都営芝五丁目アパート2号棟",
    "prefecture": "東京都",
    "latitude": 35.6482637,
    "longitude": 139.7483749
  },
  {
    "id": 1479,
    "meeting_name": "門司田野浦病院支部 例会",
    "next_date": "2026-06-23",
    "start_time": "13:30",
    "end_time": "15:30",
    "recurrence": "第1・第2・第3・第4・第5火曜",
    "address": "福岡県北九州市門司区田野浦１０１８−１",
    "prefecture": "福岡県",
    "latitude": 33.960899,
    "longitude": 131.001038
  },
  {
    "id": 1501,
    "meeting_name": "田野浦病院支部 週例会",
    "next_date": "2026-06-23",
    "start_time": "13:30",
    "end_time": "15:30",
    "recurrence": "第1・第2・第3・第4・第5火曜",
    "address": "北九州市門司区田野浦1018",
    "prefecture": "福岡県",
    "latitude": 33.960899,
    "longitude": 131.001038
  },
  {
    "id": 1531,
    "meeting_name": "保健所例会",
    "next_date": "2026-06-23",
    "start_time": "13:30",
    "end_time": "15:30",
    "recurrence": "第2・第4火曜",
    "address": "佐世保市高砂町５−１",
    "prefecture": "長崎県",
    "latitude": 33.178448,
    "longitude": 129.715485
  },
  {
    "id": 1700,
    "meeting_name": "ｻﾎﾟｰﾄﾐｰﾃｨﾝｸﾞ(昼例会)",
    "next_date": "2026-06-23",
    "start_time": "13:30:00",
    "end_time": "15:00:00",
    "recurrence": "第4火曜",
    "address": "静岡県藤枝市藤枝",
    "prefecture": "静岡県",
    "latitude": 34.86721,
    "longitude": 138.252029
  },
  {
    "id": 852,
    "meeting_name": "みやび家族昼例会　親の会",
    "next_date": "2026-06-23",
    "start_time": "14:00",
    "end_time": "15:30",
    "recurrence": "第4火曜",
    "address": "京都府京都市中京区壬生仙念町30",
    "prefecture": "京都府",
    "latitude": 35.003838,
    "longitude": 135.73555
  },
  {
    "id": 870,
    "meeting_name": "家族昼",
    "next_date": "2026-06-23",
    "start_time": "14:00",
    "end_time": "15:30",
    "recurrence": "第2・第4火曜",
    "address": "京都府京都市中京区壬生仙念町30",
    "prefecture": "京都府",
    "latitude": 35.003838,
    "longitude": 135.73555
  },
  {
    "id": 873,
    "meeting_name": "家族例会",
    "next_date": "2026-06-23",
    "start_time": "14:00",
    "end_time": "15:30",
    "recurrence": "第2・第4火曜",
    "address": "京都市中京区壬生仙念町３０",
    "prefecture": "京都府",
    "latitude": 35.003838,
    "longitude": 135.73555
  },
  {
    "id": 873,
    "meeting_name": "みやび家族昼例会（親の会）",
    "next_date": "2026-06-23",
    "start_time": "14:00",
    "end_time": "15:30",
    "recurrence": "第4火曜",
    "address": "京都市中京区壬生仙念町３０",
    "prefecture": "京都府",
    "latitude": 35.003838,
    "longitude": 135.73555
  },
  {
    "id": 870,
    "meeting_name": "みやび家族昼",
    "next_date": "2026-06-23",
    "start_time": "14:00:00",
    "end_time": "15:30:00",
    "recurrence": "第2・第4火曜",
    "address": "京都府京都市中京区壬生仙念町30",
    "prefecture": "京都府",
    "latitude": 35.003838,
    "longitude": 135.73555
  },
  {
    "id": 1131,
    "meeting_name": "生駒元町昼例会",
    "next_date": "2026-06-23",
    "start_time": "14:30",
    "end_time": "16:15",
    "recurrence": "第1・第2・第3・第4・第5火曜",
    "address": "奈良県生駒市元町１丁目７−６",
    "prefecture": "奈良県",
    "latitude": 34.691826,
    "longitude": 135.698273
  },
  {
    "id": 1372,
    "meeting_name": "例会",
    "next_date": "2026-06-23",
    "start_time": "16:30",
    "end_time": "18:30",
    "recurrence": "第1・第2・第3・第4・第5火曜",
    "address": "愛媛県南宇和郡愛南町御荘平山846",
    "prefecture": "愛媛県",
    "latitude": 32.97213,
    "longitude": 132.536377
  },
  {
    "id": 1322,
    "meeting_name": "例会",
    "next_date": "2026-06-23",
    "start_time": "18:00",
    "end_time": "20:00",
    "recurrence": "第2・第4火曜",
    "address": "徳島県吉野川市鴨島町鴨島106-2",
    "prefecture": "徳島県",
    "latitude": 34.06741,
    "longitude": 134.358749
  },
  {
    "id": 820,
    "meeting_name": "例会",
    "next_date": "2026-06-23",
    "start_time": "18:30",
    "end_time": "20:30",
    "recurrence": "第1・第2・第3・第4・第5火曜",
    "address": "京都府中京区壬生坊城町19-4",
    "prefecture": "京都府",
    "latitude": 35.02124,
    "longitude": 135.755615
  },
  {
    "id": 132,
    "meeting_name": "越谷例会",
    "next_date": "2026-06-23",
    "start_time": "18:30",
    "end_time": "20:30",
    "recurrence": "第2・第4火曜",
    "address": "越谷市越ヶ谷4-1-1",
    "prefecture": "埼玉県",
    "latitude": 35.8897351,
    "longitude": 139.7915
  },
  {
    "id": 1815,
    "meeting_name": "越谷例会",
    "next_date": "2026-06-23",
    "start_time": "18:30",
    "end_time": "20:30",
    "recurrence": "第2・第4火曜",
    "address": "埼玉県越谷市越ヶ谷4-1-1",
    "prefecture": "埼玉県",
    "latitude": 35.889099,
    "longitude": 139.791641
  },
  {
    "id": 970,
    "meeting_name": "西支部例会",
    "next_date": "2026-06-23",
    "start_time": "18:30",
    "end_time": "20:15",
    "recurrence": "第1・第2・第3・第4・第5火曜",
    "address": "大阪府寝屋川市大利町2-14",
    "prefecture": "大阪府",
    "latitude": 34.76543,
    "longitude": 135.618942
  },
  {
    "id": 1135,
    "meeting_name": "郡山",
    "next_date": "2026-06-23",
    "start_time": "18:30",
    "end_time": "20:15",
    "recurrence": "第1・第2・第3・第4・第5火曜",
    "address": "奈良県大和郡山市南郡山町５２９−１",
    "prefecture": "奈良県",
    "latitude": 34.648361,
    "longitude": 135.78241
  },
  {
    "id": 1234,
    "meeting_name": "新人ミーティング",
    "next_date": "2026-06-23",
    "start_time": "18:30",
    "end_time": "20:30",
    "recurrence": "第4火曜",
    "address": "岡山市北区大元上町10-31",
    "prefecture": "岡山県",
    "latitude": 34.648479,
    "longitude": 133.900253
  },
  {
    "id": 1273,
    "meeting_name": "金川会場",
    "next_date": "2026-06-23",
    "start_time": "18:30",
    "end_time": "20:30",
    "recurrence": "第4火曜",
    "address": "岡山県岡山市北区御津宇垣１６２９",
    "prefecture": "岡山県",
    "latitude": 34.782856,
    "longitude": 133.924362
  },
  {
    "id": 5,
    "meeting_name": "江東断酒会　第2例会",
    "next_date": "2026-06-23",
    "start_time": "18:30",
    "end_time": "20:45",
    "recurrence": "第3・第4火曜",
    "address": "〒136-0072 東京都江東区大島４丁目５−１",
    "prefecture": "東京都",
    "latitude": 35.68903580000001,
    "longitude": 139.8269998
  },
  {
    "id": 10,
    "meeting_name": "江東断酒会　第2例会",
    "next_date": "2026-06-23",
    "start_time": "18:30",
    "end_time": "20:45",
    "recurrence": "第3・第4火曜",
    "address": "〒154-0004 東京都世田谷区太子堂１丁目１４−２０ 世田谷区立太子堂区民センター",
    "prefecture": "東京都",
    "latitude": 35.6428861,
    "longitude": 139.6736244
  },
  {
    "id": 787,
    "meeting_name": "例会",
    "next_date": "2026-06-23",
    "start_time": "18:30",
    "end_time": "20:30",
    "recurrence": "第1・第2・第3・第4火曜",
    "address": "滋賀県大津市馬場３丁目15-45",
    "prefecture": "滋賀県",
    "latitude": 34.998207,
    "longitude": 135.88237
  },
  {
    "id": 1361,
    "meeting_name": "例会",
    "next_date": "2026-06-23",
    "start_time": "18:30",
    "end_time": "20:30",
    "recurrence": "第1・第2・第3・第4・第5火曜",
    "address": "仲多度郡多度津町本通１丁目８−４",
    "prefecture": "香川県",
    "latitude": 34.270767,
    "longitude": 133.749069
  },
  {
    "id": 820,
    "meeting_name": "中京",
    "next_date": "2026-06-23",
    "start_time": "18:30:00",
    "end_time": "20:30:00",
    "recurrence": "毎週火曜",
    "address": "京都府中京区壬生坊城町19-4",
    "prefecture": "京都府",
    "latitude": 35.02124,
    "longitude": 135.755615
  },
  {
    "id": 1767,
    "meeting_name": "西",
    "next_date": "2026-06-23",
    "start_time": "18:30:00",
    "end_time": "20:15:00",
    "recurrence": "毎週火曜",
    "address": "",
    "prefecture": "大阪府",
    "latitude": 34.766109,
    "longitude": 135.628052
  },
  {
    "id": 820,
    "meeting_name": "例会",
    "next_date": "2026-06-23",
    "start_time": "18:40",
    "end_time": "20:40",
    "recurrence": "第1・第2・第3・第4・第5火曜",
    "address": "京都府中京区壬生坊城町19-4",
    "prefecture": "京都府",
    "latitude": 35.02124,
    "longitude": 135.755615
  },
  {
    "id": 927,
    "meeting_name": "例会",
    "next_date": "2026-06-23",
    "start_time": "18:40",
    "end_time": "20:40",
    "recurrence": "第1・第2・第3・第4・第5火曜",
    "address": "大阪府堺市中区深井沢町2470-7",
    "prefecture": "大阪府",
    "latitude": 34.528427,
    "longitude": 135.498566
  },
  {
    "id": 1779,
    "meeting_name": "堺市深井断酒会",
    "next_date": "2026-06-23",
    "start_time": "18:40:00",
    "end_time": "19:40:00",
    "recurrence": "毎週火曜",
    "address": "大阪府堺市中区深井沢町2470-7",
    "prefecture": "大阪府",
    "latitude": 34.5283524,
    "longitude": 135.4964851
  },
  {
    "id": 80,
    "meeting_name": "平塚例会",
    "next_date": "2026-06-23",
    "start_time": "18:45",
    "end_time": "20:30",
    "recurrence": "第2・第3・第4火曜",
    "address": "〒244-0003 神奈川県横浜市戸塚区戸塚町１２７ 横浜市戸塚センター",
    "prefecture": "神奈川県",
    "latitude": 35.3979389,
    "longitude": 139.5326778
  },
  {
    "id": 840,
    "meeting_name": "例会",
    "next_date": "2026-06-23",
    "start_time": "18:50",
    "end_time": "20:50",
    "recurrence": "第1・第2・第3・第4・第5火曜",
    "address": "京都府京都市北区紫竹東高縄町1",
    "prefecture": "京都府",
    "latitude": 35.045666,
    "longitude": 135.75116
  },
  {
    "id": 840,
    "meeting_name": "北山",
    "next_date": "2026-06-23",
    "start_time": "18:50:00",
    "end_time": "20:50:00",
    "recurrence": "毎週火曜",
    "address": "京都府京都市北区紫竹東高縄町1",
    "prefecture": "京都府",
    "latitude": 35.045666,
    "longitude": 135.75116
  },
  {
    "id": 1719,
    "meeting_name": "北山",
    "next_date": "2026-06-23",
    "start_time": "18:50:00",
    "end_time": "20:50:00",
    "recurrence": "毎週火曜",
    "address": "京都府北区大将軍鷹司町",
    "prefecture": "京都府",
    "latitude": 35.011669,
    "longitude": 135.768112
  },
  {
    "id": 764,
    "meeting_name": "上野例会",
    "next_date": "2026-06-23",
    "start_time": "19:00",
    "end_time": "21:00",
    "recurrence": "第1・第2・第3・第4・第5火曜",
    "address": "三重県伊賀市桑町1412",
    "prefecture": "三重県",
    "latitude": 34.749832,
    "longitude": 136.142258
  },
  {
    "id": 766,
    "meeting_name": "亀山例会",
    "next_date": "2026-06-23",
    "start_time": "19:00",
    "end_time": "21:00",
    "recurrence": "第2・第4火曜",
    "address": "三重県亀山市東町1丁目8-7",
    "prefecture": "三重県",
    "latitude": 34.85471,
    "longitude": 136.454529
  },
  {
    "id": 785,
    "meeting_name": "尾鷲例会",
    "next_date": "2026-06-23",
    "start_time": "19:00",
    "end_time": "21:00",
    "recurrence": "第2・第4火曜",
    "address": "三重県尾鷲市栄町5-5",
    "prefecture": "三重県",
    "latitude": 34.074207,
    "longitude": 136.195236
  },
  {
    "id": 833,
    "meeting_name": "西支部例会",
    "next_date": "2026-06-23",
    "start_time": "19:00",
    "end_time": "21:00",
    "recurrence": "第1・第2・第3・第4・第5火曜",
    "address": "京都府舞鶴市字南田辺1",
    "prefecture": "京都府",
    "latitude": 35.447472,
    "longitude": 135.33046
  },
  {
    "id": 840,
    "meeting_name": "例会",
    "next_date": "2026-06-23",
    "start_time": "19:00",
    "end_time": "21:00",
    "recurrence": "第1・第2・第3・第4・第5火曜",
    "address": "京都府京都市北区紫竹東高縄町1",
    "prefecture": "京都府",
    "latitude": 35.045666,
    "longitude": 135.75116
  },
  {
    "id": 840,
    "meeting_name": "家族会",
    "next_date": "2026-06-23",
    "start_time": "19:00",
    "end_time": "21:00",
    "recurrence": "第4火曜",
    "address": "京都府京都市北区紫竹東高縄町1",
    "prefecture": "京都府",
    "latitude": 35.045666,
    "longitude": 135.75116
  },
  {
    "id": 849,
    "meeting_name": "例会",
    "next_date": "2026-06-23",
    "start_time": "19:00",
    "end_time": "21:00",
    "recurrence": "第1・第2・第3・第4・第5火曜",
    "address": "京都府宇治市広野町寺山17-403",
    "prefecture": "京都府",
    "latitude": 34.872871,
    "longitude": 135.78154
  },
  {
    "id": 1514,
    "meeting_name": "佐賀断酒会 例会",
    "next_date": "2026-06-23",
    "start_time": "19:00",
    "end_time": "21:00",
    "recurrence": "第4火曜",
    "address": "佐賀県佐賀市白山2丁目1-12",
    "prefecture": "佐賀県",
    "latitude": 33.254555,
    "longitude": 130.300873
  },
  {
    "id": 1044,
    "meeting_name": "尼崎新生支部例会",
    "next_date": "2026-06-23",
    "start_time": "19:00",
    "end_time": "20:45",
    "recurrence": "第1・第2・第3・第4・第5火曜",
    "address": "尼崎市潮江1-11-1",
    "prefecture": "兵庫県",
    "latitude": 34.733021,
    "longitude": 135.433365
  },
  {
    "id": 1050,
    "meeting_name": "例会",
    "next_date": "2026-06-23",
    "start_time": "19:00",
    "end_time": "20:45",
    "recurrence": "第1・第2・第3・第4・第5火曜",
    "address": "兵庫県宝塚市安倉西2-1-1",
    "prefecture": "兵庫県",
    "latitude": 34.799648,
    "longitude": 135.368195
  },
  {
    "id": 1052,
    "meeting_name": "神明支部例会",
    "next_date": "2026-06-23",
    "start_time": "19:00",
    "end_time": "20:45",
    "recurrence": "第1・第2・第3・第4・第5火曜",
    "address": "兵庫県神戸市兵庫区羽坂通4-1-1",
    "prefecture": "兵庫県",
    "latitude": 34.669193,
    "longitude": 135.165161
  },
  {
    "id": 1074,
    "meeting_name": "垂水支部例会",
    "next_date": "2026-06-23",
    "start_time": "19:00",
    "end_time": "21:00",
    "recurrence": "第1・第2・第3・第4・第5火曜",
    "address": "兵庫県神戸市垂水区日向1-5-1",
    "prefecture": "兵庫県",
    "latitude": 34.630329,
    "longitude": 135.056931
  },
  {
    "id": 1083,
    "meeting_name": "三宮支部例会",
    "next_date": "2026-06-23",
    "start_time": "19:00",
    "end_time": "21:00",
    "recurrence": "第1・第2・第3・第4・第5火曜",
    "address": "兵庫県神戸市中央区雲井通5-1-2",
    "prefecture": "兵庫県",
    "latitude": 34.695007,
    "longitude": 135.197586
  },
  {
    "id": 1111,
    "meeting_name": "例会",
    "next_date": "2026-06-23",
    "start_time": "19:00",
    "end_time": "20:45",
    "recurrence": "第1・第2・第3・第4・第5火曜",
    "address": "兵庫県西宮市鳴尾町1-8-2",
    "prefecture": "兵庫県",
    "latitude": 34.718044,
    "longitude": 135.371765
  },
  {
    "id": 1137,
    "meeting_name": "中央支部例会",
    "next_date": "2026-06-23",
    "start_time": "19:00",
    "end_time": "21:00",
    "recurrence": "第1・第2・第3・第4・第5火曜",
    "address": "和歌山県和歌山市木広町5-1-9",
    "prefecture": "和歌山県",
    "latitude": 34.227104,
    "longitude": 135.190201
  },
  {
    "id": 157,
    "meeting_name": "合同例会",
    "next_date": "2026-06-23",
    "start_time": "19:00",
    "end_time": "21:00",
    "recurrence": "第4火曜",
    "address": "川口市並木2-8-2",
    "prefecture": "埼玉県",
    "latitude": 35.8168722,
    "longitude": 139.7089682
  },
  {
    "id": 157,
    "meeting_name": "合同例会/家族会",
    "next_date": "2026-06-23",
    "start_time": "19:00",
    "end_time": "21:00",
    "recurrence": "第4火曜",
    "address": "川口市並木2-8-2",
    "prefecture": "埼玉県",
    "latitude": 35.8168722,
    "longitude": 139.7089682
  },
  {
    "id": 165,
    "meeting_name": "深谷例会",
    "next_date": "2026-06-23",
    "start_time": "19:00",
    "end_time": "21:00",
    "recurrence": "第2・第4火曜",
    "address": "深谷市仲町20-2",
    "prefecture": "埼玉県",
    "latitude": 36.2006332,
    "longitude": 139.2842876
  },
  {
    "id": 1816,
    "meeting_name": "ふじみ野例会",
    "next_date": "2026-06-23",
    "start_time": "19:00",
    "end_time": "21:00",
    "recurrence": "第4火曜",
    "address": "埼玉県ふじみ野市福岡1-1-1",
    "prefecture": "埼玉県",
    "latitude": 35.879875,
    "longitude": 139.519592
  },
  {
    "id": 1582,
    "meeting_name": "三重断酒会 例会",
    "next_date": "2026-06-23",
    "start_time": "19:00",
    "end_time": "21:00",
    "recurrence": "第1・第2・第3・第4・第5火曜",
    "address": "大分県豊後大野市三重町市場 1200",
    "prefecture": "大分県",
    "latitude": 32.978252,
    "longitude": 131.585175
  },
  {
    "id": 945,
    "meeting_name": "例会",
    "next_date": "2026-06-23",
    "start_time": "19:00",
    "end_time": "20:45",
    "recurrence": "第1・第2・第3・第4・第5火曜",
    "address": "大阪府大阪市旭区太子橋1丁目1-27",
    "prefecture": "大阪府",
    "latitude": 34.729633,
    "longitude": 135.551559
  },
  {
    "id": 946,
    "meeting_name": "田辺例会",
    "next_date": "2026-06-23",
    "start_time": "19:00",
    "end_time": "20:45",
    "recurrence": "第1・第2・第3・第4・第5火曜",
    "address": "大阪府大阪市東住吉区南田辺1丁目9-28",
    "prefecture": "大阪府",
    "latitude": 34.62133,
    "longitude": 135.525497
  },
  {
    "id": 952,
    "meeting_name": "淀川南例会",
    "next_date": "2026-06-23",
    "start_time": "19:00",
    "end_time": "20:45",
    "recurrence": "第1・第2・第3・第4・第5火曜",
    "address": "大阪府大阪市淀川区野中南2丁目1-5",
    "prefecture": "大阪府",
    "latitude": 34.725208,
    "longitude": 135.482697
  },
  {
    "id": 958,
    "meeting_name": "西成東例会",
    "next_date": "2026-06-23",
    "start_time": "19:00",
    "end_time": "20:45",
    "recurrence": "第1・第2・第3・第4・第5火曜",
    "address": "大阪府大阪市西成区岸里1丁目1-50",
    "prefecture": "大阪府",
    "latitude": 34.634346,
    "longitude": 135.494675
  },
  {
    "id": 972,
    "meeting_name": "例会",
    "next_date": "2026-06-23",
    "start_time": "19:00",
    "end_time": "20:45",
    "recurrence": "第1・第2・第3・第4・第5火曜",
    "address": "大阪府岸和田市野田町1丁目5",
    "prefecture": "大阪府",
    "latitude": 34.458527,
    "longitude": 135.378815
  },
  {
    "id": 974,
    "meeting_name": "例会",
    "next_date": "2026-06-23",
    "start_time": "19:00",
    "end_time": "21:00",
    "recurrence": "第1・第2・第3・第4・第5火曜",
    "address": "大阪府河内長野市昭栄町7-1",
    "prefecture": "大阪府",
    "latitude": 34.454536,
    "longitude": 135.560333
  },
  {
    "id": 988,
    "meeting_name": "太平寺支部例会",
    "next_date": "2026-06-23",
    "start_time": "19:00",
    "end_time": "20:45",
    "recurrence": "第1・第2・第3・第4・第5火曜",
    "address": "大阪府東大阪市太平寺2丁目9-32",
    "prefecture": "大阪府",
    "latitude": 34.654789,
    "longitude": 135.567474
  },
  {
    "id": 1003,
    "meeting_name": "楠葉支部例会",
    "next_date": "2026-06-23",
    "start_time": "19:00",
    "end_time": "20:45",
    "recurrence": "第1・第2・第3・第4・第5火曜",
    "address": "大阪府枚方市楠葉並木2-29-5",
    "prefecture": "大阪府",
    "latitude": 34.859627,
    "longitude": 135.681549
  },
  {
    "id": 1042,
    "meeting_name": "高槻支部例会",
    "next_date": "2026-06-23",
    "start_time": "19:00",
    "end_time": "21:00",
    "recurrence": "第1・第2・第3・第4・第5火曜",
    "address": "大阪府高槻市真上町2丁目16-6",
    "prefecture": "大阪府",
    "latitude": 34.857933,
    "longitude": 135.608612
  },
  {
    "id": 1128,
    "meeting_name": "猿沢例会",
    "next_date": "2026-06-23",
    "start_time": "19:00",
    "end_time": "20:45",
    "recurrence": "第1・第2・第3・第4・第5火曜",
    "address": "奈良県奈良市上三条町23-4",
    "prefecture": "奈良県",
    "latitude": 34.682251,
    "longitude": 135.825439
  },
  {
    "id": 730,
    "meeting_name": "家庭例会",
    "next_date": "2026-06-23",
    "start_time": "19:00",
    "end_time": "21:00",
    "recurrence": "第1・第2・第3・第4・第5火曜",
    "address": "富山市",
    "prefecture": "富山県",
    "latitude": 36.695904,
    "longitude": 137.213715
  },
  {
    "id": 1292,
    "meeting_name": "周南市学び・交流プラザ例会",
    "next_date": "2026-06-23",
    "start_time": "19:00",
    "end_time": "21:00",
    "recurrence": "第4火曜",
    "address": "山口県周南市中央町４−１０",
    "prefecture": "山口県",
    "latitude": 34.07093,
    "longitude": 131.765198
  },
  {
    "id": 1167,
    "meeting_name": "例会",
    "next_date": "2026-06-23",
    "start_time": "19:00",
    "end_time": "21:00",
    "recurrence": "第4火曜",
    "address": "松江市玉湯町湯町１７９６",
    "prefecture": "島根県",
    "latitude": 35.431225,
    "longitude": 133.006668
  },
  {
    "id": 433,
    "meeting_name": "平石支部例会",
    "next_date": "2026-06-23",
    "start_time": "19:00",
    "end_time": "21:00",
    "recurrence": "第1・第2・第3・第4・第5火曜",
    "address": "栃木県宇都宮市平出町158-1",
    "prefecture": "栃木県",
    "latitude": 36.5715212,
    "longitude": 139.9416156
  },
  {
    "id": 1623,
    "meeting_name": "やんばる断酒友の会",
    "next_date": "2026-06-23",
    "start_time": "19:00",
    "end_time": "21:00",
    "recurrence": "第1・第2・第3・第4・第5火曜",
    "address": "名護市大中２丁目１３−１",
    "prefecture": "沖縄県",
    "latitude": 26.592846,
    "longitude": 127.987732
  },
  {
    "id": 1629,
    "meeting_name": "宜野湾断酒新生会",
    "next_date": "2026-06-23",
    "start_time": "19:00",
    "end_time": "21:00",
    "recurrence": "第1・第2・第3・第4・第5火曜",
    "address": "宜野湾市真栄原１丁目１３−１５",
    "prefecture": "沖縄県",
    "latitude": 26.258301,
    "longitude": 127.7444
  },
  {
    "id": 1638,
    "meeting_name": "石川断酒会",
    "next_date": "2026-06-23",
    "start_time": "19:00",
    "end_time": "21:00",
    "recurrence": "第1・第2・第3・第4・第5火曜",
    "address": "うるま市石川石崎１丁目１",
    "prefecture": "沖縄県",
    "latitude": 26.427147,
    "longitude": 127.829247
  },
  {
    "id": 1639,
    "meeting_name": "粟国断酒会",
    "next_date": "2026-06-23",
    "start_time": "19:00",
    "end_time": "21:00",
    "recurrence": "第2・第4火曜",
    "address": "島尻郡粟国村東３６７",
    "prefecture": "沖縄県",
    "latitude": 26.589865,
    "longitude": 127.231392
  },
  {
    "id": 1647,
    "meeting_name": "首里断酒会",
    "next_date": "2026-06-23",
    "start_time": "19:00",
    "end_time": "21:00",
    "recurrence": "第1・第2・第3・第4・第5火曜",
    "address": "那覇市首里当蔵町２丁目８−２",
    "prefecture": "沖縄県",
    "latitude": 26.218794,
    "longitude": 127.720161
  },
  {
    "id": 800,
    "meeting_name": "例会",
    "next_date": "2026-06-23",
    "start_time": "19:00",
    "end_time": "21:00",
    "recurrence": "第1・第2・第3・第4・第5火曜",
    "address": "滋賀県長浜市神照286-1",
    "prefecture": "滋賀県",
    "latitude": 35.396305,
    "longitude": 136.273575
  },
  {
    "id": 1557,
    "meeting_name": "夜間例会",
    "next_date": "2026-06-23",
    "start_time": "19:00",
    "end_time": "21:00",
    "recurrence": "第4火曜",
    "address": "熊本市",
    "prefecture": "熊本県",
    "latitude": 32.803333,
    "longitude": 130.708054
  },
  {
    "id": 88,
    "meeting_name": "例会",
    "next_date": "2026-06-23",
    "start_time": "19:00",
    "end_time": "20:30",
    "recurrence": "毎週火曜",
    "address": "〒214-0014 神奈川県川崎市多摩区登戸１７７５−１",
    "prefecture": "神奈川県",
    "latitude": 35.6194623,
    "longitude": 139.562151
  },
  {
    "id": 1418,
    "meeting_name": "三郎丸例会",
    "next_date": "2026-06-23",
    "start_time": "19:00",
    "end_time": "21:00",
    "recurrence": "第1・第2・第3・第4・第5火曜",
    "address": "福岡県北九州市小倉北区今町",
    "prefecture": "福岡県",
    "latitude": 33.861298,
    "longitude": 130.8741
  },
  {
    "id": 1441,
    "meeting_name": "大牟田断酒友の会",
    "next_date": "2026-06-23",
    "start_time": "19:00",
    "end_time": "21:00",
    "recurrence": "第2・第4火曜",
    "address": "福岡県大牟田市原山町 13-3",
    "prefecture": "福岡県",
    "latitude": 33.024696,
    "longitude": 130.446594
  },
  {
    "id": 1467,
    "meeting_name": "定例会",
    "next_date": "2026-06-23",
    "start_time": "19:00",
    "end_time": "",
    "recurrence": "第2・第4火曜",
    "address": "福岡県福岡市中央区荒戸 3-3-39",
    "prefecture": "福岡県",
    "latitude": 33.592846,
    "longitude": 130.373093
  },
  {
    "id": 1476,
    "meeting_name": "遠賀",
    "next_date": "2026-06-23",
    "start_time": "19:00",
    "end_time": "21:00",
    "recurrence": "第4火曜",
    "address": "福岡県遠賀郡水巻町頃末北 1-1-2",
    "prefecture": "福岡県",
    "latitude": 33.854942,
    "longitude": 130.694199
  },
  {
    "id": 709,
    "meeting_name": "例会",
    "next_date": "2026-06-23",
    "start_time": "19:00",
    "end_time": "21:00",
    "recurrence": "第1・第2・第4火曜",
    "address": "牛久市柏田1606-1",
    "prefecture": "茨城県",
    "latitude": 35.974846,
    "longitude": 140.161377
  },
  {
    "id": 743,
    "meeting_name": "例会",
    "next_date": "2026-06-23",
    "start_time": "19:00",
    "end_time": "20:30",
    "recurrence": "第1・第2・第3・第4・第5火曜",
    "address": "長野県北安曇郡池田町大字池田3336-1",
    "prefecture": "長野県",
    "latitude": 36.418537,
    "longitude": 137.877655
  },
  {
    "id": 1406,
    "meeting_name": "安芸例会",
    "next_date": "2026-06-23",
    "start_time": "19:00",
    "end_time": "21:00",
    "recurrence": "第4火曜",
    "address": "高知県安芸市寿町2-8",
    "prefecture": "高知県",
    "latitude": 33.498394,
    "longitude": 133.904236
  },
  {
    "id": 878,
    "meeting_name": "大久保",
    "next_date": "2026-06-23",
    "start_time": "19:00:00",
    "end_time": "21:00:00",
    "recurrence": "毎週火曜",
    "address": "京都府宇治市広野町寺山17-403",
    "prefecture": "京都府",
    "latitude": 34.872871,
    "longitude": 135.78154
  },
  {
    "id": 972,
    "meeting_name": "(本部)",
    "next_date": "2026-06-23",
    "start_time": "19:00:00",
    "end_time": "20:45:00",
    "recurrence": "第3・第4火曜",
    "address": "大阪府岸和田市野田町1丁目5",
    "prefecture": "大阪府",
    "latitude": 34.458527,
    "longitude": 135.378815
  },
  {
    "id": 972,
    "meeting_name": "(例会)",
    "next_date": "2026-06-23",
    "start_time": "19:00:00",
    "end_time": "20:45:00",
    "recurrence": "毎週火曜",
    "address": "大阪府岸和田市野田町1丁目5",
    "prefecture": "大阪府",
    "latitude": 34.458527,
    "longitude": 135.378815
  },
  {
    "id": 1003,
    "meeting_name": "楠葉",
    "next_date": "2026-06-23",
    "start_time": "19:00:00",
    "end_time": "20:30:00",
    "recurrence": "毎週火曜",
    "address": "大阪府枚方市楠葉並木2-29-5",
    "prefecture": "大阪府",
    "latitude": 34.859627,
    "longitude": 135.681549
  },
  {
    "id": 1042,
    "meeting_name": "高槻市断酒会高槻支部例会",
    "next_date": "2026-06-23",
    "start_time": "19:00:00",
    "end_time": "21:00:00",
    "recurrence": "毎週火曜",
    "address": "大阪府高槻市真上町2丁目16-6",
    "prefecture": "大阪府",
    "latitude": 34.857933,
    "longitude": 135.608612
  },
  {
    "id": 1734,
    "meeting_name": "田辺",
    "next_date": "2026-06-23",
    "start_time": "19:00:00",
    "end_time": "20:45:00",
    "recurrence": "毎週火曜",
    "address": "",
    "prefecture": "大阪府",
    "latitude": 34.6124311,
    "longitude": 135.5098322
  },
  {
    "id": 1739,
    "meeting_name": "西淀川断酒会",
    "next_date": "2026-06-23",
    "start_time": "19:00:00",
    "end_time": "20:45:00",
    "recurrence": "第2・第4火曜",
    "address": "",
    "prefecture": "大阪府",
    "latitude": 34.7105494,
    "longitude": 135.4402388
  },
  {
    "id": 1759,
    "meeting_name": "(例会)",
    "next_date": "2026-06-23",
    "start_time": "19:00:00",
    "end_time": "20:45:00",
    "recurrence": "第2・第3・第4・第5火曜",
    "address": "",
    "prefecture": "大阪府",
    "latitude": 34.468765,
    "longitude": 135.575485
  },
  {
    "id": 1771,
    "meeting_name": "太平寺",
    "next_date": "2026-06-23",
    "start_time": "19:00:00",
    "end_time": "20:45:00",
    "recurrence": "毎週火曜",
    "address": "",
    "prefecture": "大阪府",
    "latitude": 34.679443,
    "longitude": 135.60083
  },
  {
    "id": 1666,
    "meeting_name": "定例会",
    "next_date": "2026-06-23",
    "start_time": "19:00:00",
    "end_time": "",
    "recurrence": "毎週火曜",
    "address": "静岡県湖西市",
    "prefecture": "静岡県",
    "latitude": 34.718472,
    "longitude": 137.531647
  },
  {
    "id": 1673,
    "meeting_name": "沼津小例会",
    "next_date": "2026-06-23",
    "start_time": "19:00:00",
    "end_time": "",
    "recurrence": "第4火曜",
    "address": "静岡県沼津市",
    "prefecture": "静岡県",
    "latitude": 35.095554,
    "longitude": 138.863617
  },
  {
    "id": 1705,
    "meeting_name": "地区例会",
    "next_date": "2026-06-23",
    "start_time": "19:00:00",
    "end_time": "",
    "recurrence": "第4・第5火曜",
    "address": "静岡県富士市",
    "prefecture": "静岡県",
    "latitude": 35.16135,
    "longitude": 138.676239
  },
  {
    "id": 1146,
    "meeting_name": "海南支部例会",
    "next_date": "2026-06-23",
    "start_time": "19:30",
    "end_time": "21:00",
    "recurrence": "第1・第2・第3・第4・第5火曜",
    "address": "和歌山県海南市日方1271-4",
    "prefecture": "和歌山県",
    "latitude": 34.157089,
    "longitude": 135.209305
  },
  {
    "id": 1150,
    "meeting_name": "岩出支部例会",
    "next_date": "2026-06-23",
    "start_time": "19:30",
    "end_time": "21:00",
    "recurrence": "第1・第2・第3・第4・第5火曜",
    "address": "和歌山県岩出市根来535-2",
    "prefecture": "和歌山県",
    "latitude": 34.27644,
    "longitude": 135.308914
  },
  {
    "id": 1587,
    "meeting_name": "佐賀関断酒会 例会",
    "next_date": "2026-06-23",
    "start_time": "19:30",
    "end_time": "21:00",
    "recurrence": "第2・第4火曜",
    "address": "大分県大分市大字佐賀関1407-27",
    "prefecture": "大分県",
    "latitude": 33.257988,
    "longitude": 131.874893
  },
  {
    "id": 1590,
    "meeting_name": "大分南断酒会 例会",
    "next_date": "2026-06-23",
    "start_time": "19:30",
    "end_time": "21:30",
    "recurrence": "第1・第2・第3・第4・第5火曜",
    "address": "大分県大分市大字玉沢 743-2",
    "prefecture": "大分県",
    "latitude": 33.187981,
    "longitude": 131.577866
  },
  {
    "id": 1595,
    "meeting_name": "日田断酒会 例会",
    "next_date": "2026-06-23",
    "start_time": "19:30",
    "end_time": "21:00",
    "recurrence": "第1・第2・第3・第4・第5火曜",
    "address": "大分県日田市上野町1丁目1",
    "prefecture": "大分県",
    "latitude": 33.304764,
    "longitude": 130.921097
  },
  {
    "id": 1599,
    "meeting_name": "速見断酒会 例会",
    "next_date": "2026-06-23",
    "start_time": "19:30",
    "end_time": "21:00",
    "recurrence": "第1・第2・第3・第4・第5火曜",
    "address": "大分県杵築市山香町大字野原 1010-2",
    "prefecture": "大分県",
    "latitude": 33.421692,
    "longitude": 131.495682
  },
  {
    "id": 750,
    "meeting_name": "例会",
    "next_date": "2026-06-23",
    "start_time": "19:30",
    "end_time": "21:00",
    "recurrence": "第1・第2・第3・第4・第5火曜",
    "address": "土岐市下石町１０６０",
    "prefecture": "岐阜県",
    "latitude": 35.32029,
    "longitude": 137.190765
  },
  {
    "id": 1701,
    "meeting_name": "吉田例会",
    "next_date": "2026-06-23",
    "start_time": "19:30:00",
    "end_time": "",
    "recurrence": "第4火曜",
    "address": "静岡県牧之原市",
    "prefecture": "静岡県",
    "latitude": 34.740009,
    "longitude": 138.224655
  },
  {
    "id": 1621,
    "meeting_name": "ミーティング",
    "next_date": "2026-06-23",
    "start_time": "20:00",
    "end_time": "21:30",
    "recurrence": "第1・第2・第3・第4・第5火曜",
    "address": "沖縄県浦添市牧港２丁目１５ー３コーポ水無月201",
    "prefecture": "沖縄県",
    "latitude": 26.260475,
    "longitude": 127.723824
  },
  {
    "id": 902,
    "meeting_name": "昼例会",
    "next_date": "2026-06-24",
    "start_time": "12:30",
    "end_time": "14:00",
    "recurrence": "第4水曜",
    "address": "大阪府高石市取石1丁目7-6",
    "prefecture": "大阪府",
    "latitude": 34.523964,
    "longitude": 135.45372
  },
  {
    "id": 1055,
    "meeting_name": "はなみずき昼例会",
    "next_date": "2026-06-24",
    "start_time": "13:00",
    "end_time": "14:30",
    "recurrence": "第1・第2・第3・第4・第5水曜",
    "address": "兵庫県尼崎市宮内町2-85-1",
    "prefecture": "兵庫県",
    "latitude": 34.719707,
    "longitude": 135.404358
  },
  {
    "id": 1143,
    "meeting_name": "連合会昼例会",
    "next_date": "2026-06-24",
    "start_time": "13:00",
    "end_time": "15:00",
    "recurrence": "第1・第2・第3・第4・第5水曜",
    "address": "和歌山県和歌山市手平２丁目１−２",
    "prefecture": "和歌山県",
    "latitude": 34.218155,
    "longitude": 135.190002
  },
  {
    "id": 247,
    "meeting_name": "立川酒害相談",
    "next_date": "2026-06-24",
    "start_time": "13:00",
    "end_time": "16:00",
    "recurrence": "第2・第4水曜",
    "address": "〒190-0013 東京都立川市富士見町２丁目３６−４７",
    "prefecture": "東京都",
    "latitude": 35.7012732,
    "longitude": 139.4019165
  },
  {
    "id": 1635,
    "meeting_name": "源河断酒絆の会",
    "next_date": "2026-06-24",
    "start_time": "13:00",
    "end_time": "15:00",
    "recurrence": "第1・第2・第3・第4・第5水曜",
    "address": "名護市源河２５３４−６２",
    "prefecture": "沖縄県",
    "latitude": 26.616926,
    "longitude": 128.074051
  },
  {
    "id": 71,
    "meeting_name": "昼例会",
    "next_date": "2026-06-24",
    "start_time": "13:00",
    "end_time": "14:30",
    "recurrence": "毎週水曜",
    "address": "〒221-0835 神奈川県横浜市神奈川区鶴屋町２丁目２４−２",
    "prefecture": "神奈川県",
    "latitude": 35.4684095,
    "longitude": 139.6207449
  },
  {
    "id": 71,
    "meeting_name": "昼例会　担当　川崎",
    "next_date": "2026-06-24",
    "start_time": "13:00",
    "end_time": "14:30",
    "recurrence": "第4水曜",
    "address": "〒221-0835 神奈川県横浜市神奈川区鶴屋町２丁目２４−２",
    "prefecture": "神奈川県",
    "latitude": 35.4684095,
    "longitude": 139.6207449
  },
  {
    "id": 1098,
    "meeting_name": "酒害教室",
    "next_date": "2026-06-24",
    "start_time": "13:30",
    "end_time": "15:30",
    "recurrence": "第2・第4水曜",
    "address": "兵庫県神戸市兵庫区荒田町1-21-1",
    "prefecture": "兵庫県",
    "latitude": 34.680534,
    "longitude": 135.16539
  },
  {
    "id": 697,
    "meeting_name": "例会",
    "next_date": "2026-06-24",
    "start_time": "13:30",
    "end_time": "15:00",
    "recurrence": "第2・第4水曜",
    "address": "札幌市北25条西5丁目",
    "prefecture": "北海道",
    "latitude": 43.090778,
    "longitude": 141.340973
  },
  {
    "id": 1025,
    "meeting_name": "昼例会",
    "next_date": "2026-06-24",
    "start_time": "13:30",
    "end_time": "15:00",
    "recurrence": "第2・第4水曜",
    "address": "大阪府貝塚市畠中1丁目18-8",
    "prefecture": "大阪府",
    "latitude": 34.437019,
    "longitude": 135.359711
  },
  {
    "id": 1214,
    "meeting_name": "例会",
    "next_date": "2026-06-24",
    "start_time": "13:30",
    "end_time": "15:30",
    "recurrence": "第4水曜",
    "address": "隠岐郡海士町海士１４５３",
    "prefecture": "島根県",
    "latitude": 36.096966,
    "longitude": 133.109116
  },
  {
    "id": 5,
    "meeting_name": "アメシスト　第2例会",
    "next_date": "2026-06-24",
    "start_time": "13:30",
    "end_time": "15:00",
    "recurrence": "第4水曜",
    "address": "〒136-0072 東京都江東区大島４丁目５−１",
    "prefecture": "東京都",
    "latitude": 35.68903580000001,
    "longitude": 139.8269998
  },
  {
    "id": 10,
    "meeting_name": "アメシスト　第2例会",
    "next_date": "2026-06-24",
    "start_time": "13:30",
    "end_time": "15:00",
    "recurrence": "第4水曜",
    "address": "〒154-0004 東京都世田谷区太子堂１丁目１４−２０ 世田谷区立太子堂区民センター",
    "prefecture": "東京都",
    "latitude": 35.6428861,
    "longitude": 139.6736244
  },
  {
    "id": 1460,
    "meeting_name": "松尾病院支部 例会",
    "next_date": "2026-06-24",
    "start_time": "13:30",
    "end_time": "15:30",
    "recurrence": "第1・第2・第3・第4・第5水曜",
    "address": "福岡県北九州市小倉南区小倉南区葛原高松１丁目２−３０",
    "prefecture": "福岡県",
    "latitude": 33.759083,
    "longitude": 130.86705
  },
  {
    "id": 1462,
    "meeting_name": "松尾病院断酒学校",
    "next_date": "2026-06-24",
    "start_time": "13:30",
    "end_time": "15:30",
    "recurrence": "第1・第2・第3・第4・第5水曜",
    "address": "北九州市小倉南区葛原高松1丁目2-30",
    "prefecture": "福岡県",
    "latitude": 33.84528,
    "longitude": 130.924896
  },
  {
    "id": 1371,
    "meeting_name": "馬場病院例会",
    "next_date": "2026-06-24",
    "start_time": "13:30",
    "end_time": "15:30",
    "recurrence": "第2・第4水曜",
    "address": "香川県高松市郷東町580",
    "prefecture": "香川県",
    "latitude": 34.34874,
    "longitude": 134.014404
  },
  {
    "id": 870,
    "meeting_name": "昼例会",
    "next_date": "2026-06-24",
    "start_time": "14:00",
    "end_time": "16:00",
    "recurrence": "第1・第2・第3・第4・第5水曜",
    "address": "京都府京都市中京区壬生仙念町30",
    "prefecture": "京都府",
    "latitude": 35.003838,
    "longitude": 135.73555
  },
  {
    "id": 923,
    "meeting_name": "昼例会",
    "next_date": "2026-06-24",
    "start_time": "14:00",
    "end_time": "15:00",
    "recurrence": "第1・第2・第3・第4・第5水曜",
    "address": "大阪府堺市美原区黒山782-10",
    "prefecture": "大阪府",
    "latitude": 34.53965,
    "longitude": 135.556351
  },
  {
    "id": 1121,
    "meeting_name": "結崎支部",
    "next_date": "2026-06-24",
    "start_time": "14:00",
    "end_time": "15:30",
    "recurrence": "第1・第2・第3・第4・第5水曜",
    "address": "奈良県磯城郡川西町結崎４５２−１０２",
    "prefecture": "奈良県",
    "latitude": 34.586838,
    "longitude": 135.780884
  },
  {
    "id": 1229,
    "meeting_name": "林病院　院内例会",
    "next_date": "2026-06-24",
    "start_time": "14:00",
    "end_time": "15:30",
    "recurrence": "第1・第2・第3・第4・第5水曜",
    "address": "岡山県岡山市中区浜472",
    "prefecture": "岡山県",
    "latitude": 34.672863,
    "longitude": 133.942429
  },
  {
    "id": 870,
    "meeting_name": "本部昼",
    "next_date": "2026-06-24",
    "start_time": "14:00:00",
    "end_time": "16:00:00",
    "recurrence": "毎週水曜",
    "address": "京都府京都市中京区壬生仙念町30",
    "prefecture": "京都府",
    "latitude": 35.003838,
    "longitude": 135.73555
  },
  {
    "id": 991,
    "meeting_name": "昼例会",
    "next_date": "2026-06-24",
    "start_time": "14:30",
    "end_time": "15:30",
    "recurrence": "第1・第2・第3・第4・第5水曜",
    "address": "大阪府東大阪市足代新町14-17",
    "prefecture": "大阪府",
    "latitude": 34.664803,
    "longitude": 135.559204
  },
  {
    "id": 805,
    "meeting_name": "昼例会",
    "next_date": "2026-06-24",
    "start_time": "14:30",
    "end_time": "16:00",
    "recurrence": "第1・第2・第3・第4・第5水曜",
    "address": "滋賀県湖南市夏見588",
    "prefecture": "滋賀県",
    "latitude": 34.997772,
    "longitude": 136.097076
  },
  {
    "id": 1115,
    "meeting_name": "山崎例会",
    "next_date": "2026-06-24",
    "start_time": "18:30",
    "end_time": "20:15",
    "recurrence": "第1・第2・第3・第4・第5水曜",
    "address": "兵庫県宍粟市山崎町鹿沢446",
    "prefecture": "兵庫県",
    "latitude": 35.003223,
    "longitude": 134.538528
  },
  {
    "id": 1798,
    "meeting_name": "浦安例会",
    "next_date": "2026-06-24",
    "start_time": "18:30",
    "end_time": "20:30",
    "recurrence": "第2・第4水曜",
    "address": "千葉県浦安市猫実４丁目１８−１",
    "prefecture": "千葉県",
    "latitude": 35.663254,
    "longitude": 139.893509
  },
  {
    "id": 917,
    "meeting_name": "三宝支部例会",
    "next_date": "2026-06-24",
    "start_time": "18:30",
    "end_time": "20:30",
    "recurrence": "第1・第2・第3・第4・第5水曜",
    "address": "大阪府堺市堺区南瓦町2-1",
    "prefecture": "大阪府",
    "latitude": 34.573563,
    "longitude": 135.479965
  },
  {
    "id": 1260,
    "meeting_name": "鴨方例会",
    "next_date": "2026-06-24",
    "start_time": "18:30",
    "end_time": "20:30",
    "recurrence": "第4水曜",
    "address": "浅口市鴨方町鴨方2244-26",
    "prefecture": "岡山県",
    "latitude": 34.529724,
    "longitude": 133.582352
  },
  {
    "id": 1280,
    "meeting_name": "例会",
    "next_date": "2026-06-24",
    "start_time": "18:30",
    "end_time": "20:30",
    "recurrence": "第1・第2・第3・第4・第5水曜",
    "address": "呉市中央6-2-9",
    "prefecture": "広島県",
    "latitude": 34.250263,
    "longitude": 132.566605
  },
  {
    "id": 1386,
    "meeting_name": "例会",
    "next_date": "2026-06-24",
    "start_time": "18:30",
    "end_time": "20:30",
    "recurrence": "第1・第3・第4・第5水曜",
    "address": "愛媛県松山市若草町8-2",
    "prefecture": "愛媛県",
    "latitude": 33.846867,
    "longitude": 132.761215
  },
  {
    "id": 3,
    "meeting_name": "京王断酒会　調布第4懇談会",
    "next_date": "2026-06-24",
    "start_time": "18:30",
    "end_time": "20:30",
    "recurrence": "第4水曜",
    "address": "",
    "prefecture": "東京都",
    "latitude": 35.752978,
    "longitude": 139.734183
  },
  {
    "id": 18,
    "meeting_name": "指針と規範勉強会",
    "next_date": "2026-06-24",
    "start_time": "18:30",
    "end_time": "20:30",
    "recurrence": "第3・第4水曜",
    "address": "",
    "prefecture": "東京都",
    "latitude": 35.6911512,
    "longitude": 139.7770967
  },
  {
    "id": 22,
    "meeting_name": "指針と規範勉強会",
    "next_date": "2026-06-24",
    "start_time": "18:30",
    "end_time": "20:30",
    "recurrence": "第3・第4水曜",
    "address": "中央区立十思スクエア 東京都中央区日本橋小伝馬町５−１ 中央区立十思スクエア等複合施設",
    "prefecture": "東京都",
    "latitude": 35.6906221,
    "longitude": 139.7771028
  },
  {
    "id": 411,
    "meeting_name": "京王断酒会　調布第4懇談会",
    "next_date": "2026-06-24",
    "start_time": "18:30",
    "end_time": "20:30",
    "recurrence": "第4水曜",
    "address": "",
    "prefecture": "東京都",
    "latitude": 35.6764225,
    "longitude": 139.650027
  },
  {
    "id": 796,
    "meeting_name": "例会",
    "next_date": "2026-06-24",
    "start_time": "18:30",
    "end_time": "20:30",
    "recurrence": "第1・第2・第3・第4・第5水曜",
    "address": "滋賀県大津市本堅田３丁目8-1",
    "prefecture": "滋賀県",
    "latitude": 35.114552,
    "longitude": 135.914703
  },
  {
    "id": 1416,
    "meeting_name": "定例会",
    "next_date": "2026-06-24",
    "start_time": "18:30",
    "end_time": "",
    "recurrence": "第1・第2・第3・第4水曜",
    "address": "福岡県北九州市小倉南区富士見３丁目１−３",
    "prefecture": "福岡県",
    "latitude": 33.860168,
    "longitude": 130.881851
  },
  {
    "id": 1416,
    "meeting_name": "小倉支部 例会",
    "next_date": "2026-06-24",
    "start_time": "18:30",
    "end_time": "20:30",
    "recurrence": "第1・第2・第3・第4・第5水曜",
    "address": "福岡県北九州市小倉南区富士見３丁目１−３",
    "prefecture": "福岡県",
    "latitude": 33.860168,
    "longitude": 130.881851
  },
  {
    "id": 1490,
    "meeting_name": "小倉支部 週例会",
    "next_date": "2026-06-24",
    "start_time": "18:30",
    "end_time": "20:30",
    "recurrence": "第1・第2・第3・第4水曜",
    "address": "北九州市小倉南区北方三丁目31番1号",
    "prefecture": "福岡県",
    "latitude": 33.848961,
    "longitude": 130.87709
  },
  {
    "id": 928,
    "meeting_name": "例会",
    "next_date": "2026-06-24",
    "start_time": "18:40",
    "end_time": "20:40",
    "recurrence": "第1・第2・第3・第4・第5水曜",
    "address": "大阪府堺市美原区黒山782-11",
    "prefecture": "大阪府",
    "latitude": 34.53965,
    "longitude": 135.556351
  },
  {
    "id": 1781,
    "meeting_name": "家族例会",
    "next_date": "2026-06-24",
    "start_time": "18:40",
    "end_time": "20:10",
    "recurrence": "第4水曜",
    "address": "大阪府堺市美原区黒山167-9",
    "prefecture": "大阪府",
    "latitude": 34.538544,
    "longitude": 135.55986
  },
  {
    "id": 1777,
    "meeting_name": "堺市金岡断酒会",
    "next_date": "2026-06-24",
    "start_time": "18:40:00",
    "end_time": "19:40:00",
    "recurrence": "毎週水曜",
    "address": "大阪府堺市北区新金岡町5丁1-4",
    "prefecture": "大阪府",
    "latitude": 34.5655445,
    "longitude": 135.5149807
  },
  {
    "id": 1781,
    "meeting_name": "堺市美原断酒会",
    "next_date": "2026-06-24",
    "start_time": "18:40:00",
    "end_time": "20:30:00",
    "recurrence": "毎週水曜",
    "address": "大阪府堺市美原区黒山167-9",
    "prefecture": "大阪府",
    "latitude": 34.538544,
    "longitude": 135.55986
  },
  {
    "id": 763,
    "meeting_name": "一志例会",
    "next_date": "2026-06-24",
    "start_time": "19:00",
    "end_time": "21:00",
    "recurrence": "第2・第4水曜",
    "address": "三重県津市美杉町矢知5580-2",
    "prefecture": "三重県",
    "latitude": 34.521942,
    "longitude": 136.224411
  },
  {
    "id": 784,
    "meeting_name": "松阪例会",
    "next_date": "2026-06-24",
    "start_time": "19:00",
    "end_time": "21:00",
    "recurrence": "第2・第4・第5水曜",
    "address": "三重県松阪市殿町310-2",
    "prefecture": "三重県",
    "latitude": 34.574768,
    "longitude": 136.526505
  },
  {
    "id": 826,
    "meeting_name": "例会",
    "next_date": "2026-06-24",
    "start_time": "19:00",
    "end_time": "21:00",
    "recurrence": "第4・第5水曜",
    "address": "京都府宮津市字鶴賀2164",
    "prefecture": "京都府",
    "latitude": 35.538624,
    "longitude": 135.197601
  },
  {
    "id": 1072,
    "meeting_name": "北神戸支部例会",
    "next_date": "2026-06-24",
    "start_time": "19:00",
    "end_time": "20:45",
    "recurrence": "第1・第2・第3・第4・第5水曜",
    "address": "兵庫県神戸市北区鈴蘭台西町1-22-1",
    "prefecture": "兵庫県",
    "latitude": 34.727188,
    "longitude": 135.144012
  },
  {
    "id": 1076,
    "meeting_name": "尼崎南新生支部例会",
    "next_date": "2026-06-24",
    "start_time": "19:00",
    "end_time": "20:45",
    "recurrence": "第1・第2・第3・第4・第5水曜",
    "address": "兵庫県尼崎市御園町93",
    "prefecture": "兵庫県",
    "latitude": 34.718002,
    "longitude": 135.416641
  },
  {
    "id": 1088,
    "meeting_name": "加古川支部例会",
    "next_date": "2026-06-24",
    "start_time": "19:00",
    "end_time": "20:45",
    "recurrence": "第1・第2・第3・第4・第5水曜",
    "address": "兵庫県加古川市加古川町寺家町177-12",
    "prefecture": "兵庫県",
    "latitude": 34.769508,
    "longitude": 134.835693
  },
  {
    "id": 1103,
    "meeting_name": "西神中央支部例会",
    "next_date": "2026-06-24",
    "start_time": "19:00",
    "end_time": "21:00",
    "recurrence": "第1・第2・第3・第4・第5水曜",
    "address": "兵庫県神戸市西区糀台5-6-1",
    "prefecture": "兵庫県",
    "latitude": 34.719322,
    "longitude": 135.018387
  },
  {
    "id": 1112,
    "meeting_name": "例会",
    "next_date": "2026-06-24",
    "start_time": "19:00",
    "end_time": "20:45",
    "recurrence": "第1・第2・第3・第4・第5水曜",
    "address": "兵庫県西宮市西福町15-12",
    "prefecture": "兵庫県",
    "latitude": 34.740799,
    "longitude": 135.351074
  },
  {
    "id": 1141,
    "meeting_name": "花山支部例会",
    "next_date": "2026-06-24",
    "start_time": "19:00",
    "end_time": "20:30",
    "recurrence": "第1・第2・第3・第4・第5水曜",
    "address": "和歌山県和歌山市鳴神574",
    "prefecture": "和歌山県",
    "latitude": 34.230927,
    "longitude": 135.212173
  },
  {
    "id": 65,
    "meeting_name": "合同例会",
    "next_date": "2026-06-24",
    "start_time": "19:00",
    "end_time": "20:30",
    "recurrence": "第4水曜",
    "address": "〒338-0002 埼玉県さいたま市中央区下落合１７１２ 103 スカイレジデンシャルタワーズ ノースウィング301・401",
    "prefecture": "埼玉県",
    "latitude": 35.8847567,
    "longitude": 139.6367987
  },
  {
    "id": 69,
    "meeting_name": "合同例会・家族会",
    "next_date": "2026-06-24",
    "start_time": "19:00",
    "end_time": "21:00",
    "recurrence": "第4水曜",
    "address": "〒330-0063 埼玉県さいたま市東浦和区高砂１１−１",
    "prefecture": "埼玉県",
    "latitude": 35.8574923,
    "longitude": 139.6496729
  },
  {
    "id": 69,
    "meeting_name": "アメシスト例会",
    "next_date": "2026-06-24",
    "start_time": "19:00",
    "end_time": "21:00",
    "recurrence": "第4水曜",
    "address": "〒330-0063 埼玉県さいたま市東浦和区高砂１１−１",
    "prefecture": "埼玉県",
    "latitude": 35.8574923,
    "longitude": 139.6496729
  },
  {
    "id": 69,
    "meeting_name": "アメシスト例会",
    "next_date": "2026-06-24",
    "start_time": "19:00",
    "end_time": "20:30",
    "recurrence": "第4水曜",
    "address": "〒330-0063 埼玉県さいたま市東浦和区高砂１１−１",
    "prefecture": "埼玉県",
    "latitude": 35.8574923,
    "longitude": 139.6496729
  },
  {
    "id": 69,
    "meeting_name": "家族例会",
    "next_date": "2026-06-24",
    "start_time": "19:00",
    "end_time": "20:30",
    "recurrence": "第4水曜",
    "address": "〒330-0063 埼玉県さいたま市東浦和区高砂１１−１",
    "prefecture": "埼玉県",
    "latitude": 35.8574923,
    "longitude": 139.6496729
  },
  {
    "id": 69,
    "meeting_name": "合同例会",
    "next_date": "2026-06-24",
    "start_time": "19:00",
    "end_time": "20:30",
    "recurrence": "第4水曜",
    "address": "〒330-0063 埼玉県さいたま市東浦和区高砂１１−１",
    "prefecture": "埼玉県",
    "latitude": 35.8574923,
    "longitude": 139.6496729
  },
  {
    "id": 162,
    "meeting_name": "熊谷例会",
    "next_date": "2026-06-24",
    "start_time": "19:00",
    "end_time": "21:00",
    "recurrence": "第1・第2・第4水曜",
    "address": "〒360-0047 埼玉県熊谷市仲町19",
    "prefecture": "埼玉県",
    "latitude": 36.1475166,
    "longitude": 139.3829333
  },
  {
    "id": 1806,
    "meeting_name": "熊谷例会",
    "next_date": "2026-06-24",
    "start_time": "19:00",
    "end_time": "21:00",
    "recurrence": "第1・第2・第4水曜",
    "address": "埼玉県熊谷市仲町19",
    "prefecture": "埼玉県",
    "latitude": 36.147598,
    "longitude": 139.382675
  },
  {
    "id": 1579,
    "meeting_name": "別府断酒会",
    "next_date": "2026-06-24",
    "start_time": "19:00",
    "end_time": "21:00",
    "recurrence": "第1・第2・第3・第4・第5水曜",
    "address": "大分県別府市上田の湯町６−３７",
    "prefecture": "大分県",
    "latitude": 33.277187,
    "longitude": 131.49765
  },
  {
    "id": 901,
    "meeting_name": "例会",
    "next_date": "2026-06-24",
    "start_time": "19:00",
    "end_time": "20:50",
    "recurrence": "第1・第2・第3・第4・第5水曜",
    "address": "大阪府泉大津市東雲町9-15",
    "prefecture": "大阪府",
    "latitude": 34.50523,
    "longitude": 135.4104
  },
  {
    "id": 937,
    "meeting_name": "例会",
    "next_date": "2026-06-24",
    "start_time": "19:00",
    "end_time": "20:45",
    "recurrence": "第1・第2・第3・第4・第5水曜",
    "address": "大阪府大阪市城東区中央3-5-45",
    "prefecture": "大阪府",
    "latitude": 34.703159,
    "longitude": 135.545578
  },
  {
    "id": 940,
    "meeting_name": "平野北例会",
    "next_date": "2026-06-24",
    "start_time": "19:00",
    "end_time": "20:45",
    "recurrence": "第1・第2・第3・第4・第5水曜",
    "address": "大阪府大阪市平野区平野南1丁目2-7",
    "prefecture": "大阪府",
    "latitude": 34.620422,
    "longitude": 135.558182
  },
  {
    "id": 950,
    "meeting_name": "例会",
    "next_date": "2026-06-24",
    "start_time": "19:00",
    "end_time": "20:45",
    "recurrence": "第1・第2・第3・第4水曜",
    "address": "大阪府大阪市此花区西九条2丁目3-15",
    "prefecture": "大阪府",
    "latitude": 34.680748,
    "longitude": 135.466156
  },
  {
    "id": 982,
    "meeting_name": "豊中千里支部例会",
    "next_date": "2026-06-24",
    "start_time": "19:00",
    "end_time": "20:45",
    "recurrence": "第1・第2・第3・第4水曜",
    "address": "大阪府豊中市新千里東町1丁目2-2",
    "prefecture": "大阪府",
    "latitude": 34.811497,
    "longitude": 135.4944
  },
  {
    "id": 998,
    "meeting_name": "鴻池支部例会",
    "next_date": "2026-06-24",
    "start_time": "19:00",
    "end_time": "20:45",
    "recurrence": "第1・第2・第3・第4・第5水曜",
    "address": "大阪府東大阪市鴻池町1丁目18-19",
    "prefecture": "大阪府",
    "latitude": 34.699844,
    "longitude": 135.605728
  },
  {
    "id": 999,
    "meeting_name": "例会",
    "next_date": "2026-06-24",
    "start_time": "19:00",
    "end_time": "21:00",
    "recurrence": "第1・第2・第3・第4・第5水曜",
    "address": "大阪府松原市田井城1丁目3-11",
    "prefecture": "大阪府",
    "latitude": 34.577686,
    "longitude": 135.548615
  },
  {
    "id": 1005,
    "meeting_name": "香里支部例会",
    "next_date": "2026-06-24",
    "start_time": "19:00",
    "end_time": "20:45",
    "recurrence": "第1・第2・第3・第4・第5水曜",
    "address": "大阪府枚方市岡東町12-3",
    "prefecture": "大阪府",
    "latitude": 34.815697,
    "longitude": 135.649704
  },
  {
    "id": 1013,
    "meeting_name": "例会",
    "next_date": "2026-06-24",
    "start_time": "19:00",
    "end_time": "21:00",
    "recurrence": "第1・第2・第3・第4・第5水曜",
    "address": "大阪府箕面市箕面5丁目11-23",
    "prefecture": "大阪府",
    "latitude": 34.831169,
    "longitude": 135.471313
  },
  {
    "id": 1016,
    "meeting_name": "真砂支部例会",
    "next_date": "2026-06-24",
    "start_time": "19:00",
    "end_time": "21:00",
    "recurrence": "第1・第2・第3・第4・第5水曜",
    "address": "大阪府茨木市舟木町11-35",
    "prefecture": "大阪府",
    "latitude": 34.813984,
    "longitude": 135.578201
  },
  {
    "id": 1028,
    "meeting_name": "例会",
    "next_date": "2026-06-24",
    "start_time": "19:00",
    "end_time": "21:00",
    "recurrence": "第1・第2・第3・第4・第5水曜",
    "address": "大阪府阪南市尾崎町1丁目18-15",
    "prefecture": "大阪府",
    "latitude": 34.361382,
    "longitude": 135.2388
  },
  {
    "id": 1606,
    "meeting_name": "大悟病院 禅心会",
    "next_date": "2026-06-24",
    "start_time": "19:00",
    "end_time": "21:00",
    "recurrence": "第2・第4水曜",
    "address": "宮崎県北諸県郡三股町長田１２７０",
    "prefecture": "宮崎県",
    "latitude": 31.746796,
    "longitude": 131.220795
  },
  {
    "id": 734,
    "meeting_name": "例会",
    "next_date": "2026-06-24",
    "start_time": "19:00",
    "end_time": "20:30",
    "recurrence": "第1・第2・第3・第4・第5水曜",
    "address": "豊田本町一丁目２ー５",
    "prefecture": "富山県",
    "latitude": 36.695267,
    "longitude": 137.211304
  },
  {
    "id": 756,
    "meeting_name": "例会",
    "next_date": "2026-06-24",
    "start_time": "19:00",
    "end_time": "20:45",
    "recurrence": "第1・第2・第3・第4・第5水曜",
    "address": "大垣市馬場町１２４",
    "prefecture": "岐阜県",
    "latitude": 35.357441,
    "longitude": 136.611816
  },
  {
    "id": 756,
    "meeting_name": "家族会",
    "next_date": "2026-06-24",
    "start_time": "19:00",
    "end_time": "20:45",
    "recurrence": "第4水曜",
    "address": "大垣市馬場町１２４",
    "prefecture": "岐阜県",
    "latitude": 35.357441,
    "longitude": 136.611816
  },
  {
    "id": 1239,
    "meeting_name": "児島会場",
    "next_date": "2026-06-24",
    "start_time": "19:00",
    "end_time": "21:00",
    "recurrence": "第4水曜",
    "address": "岡山県倉敷市児島味野2丁目2番38号",
    "prefecture": "岡山県",
    "latitude": 34.467892,
    "longitude": 133.802719
  },
  {
    "id": 1168,
    "meeting_name": "例会",
    "next_date": "2026-06-24",
    "start_time": "19:00",
    "end_time": "21:00",
    "recurrence": "第4水曜",
    "address": "松江市八雲町西岩坂３５５−１",
    "prefecture": "島根県",
    "latitude": 35.387711,
    "longitude": 133.103394
  },
  {
    "id": 1192,
    "meeting_name": "例会",
    "next_date": "2026-06-24",
    "start_time": "19:00",
    "end_time": "21:00",
    "recurrence": "第2・第4水曜",
    "address": "出雲市平田町９１１",
    "prefecture": "島根県",
    "latitude": 35.436729,
    "longitude": 132.823074
  },
  {
    "id": 1211,
    "meeting_name": "例会",
    "next_date": "2026-06-24",
    "start_time": "19:00",
    "end_time": "21:00",
    "recurrence": "第4水曜",
    "address": "鹿足郡吉賀町六日市５８２−１",
    "prefecture": "島根県",
    "latitude": 34.355019,
    "longitude": 131.935944
  },
  {
    "id": 1374,
    "meeting_name": "例会",
    "next_date": "2026-06-24",
    "start_time": "19:00",
    "end_time": "21:00",
    "recurrence": "第4水曜",
    "address": "愛媛県南宇和郡愛南町御荘平城2123-1",
    "prefecture": "愛媛県",
    "latitude": 32.962837,
    "longitude": 132.566345
  },
  {
    "id": 1378,
    "meeting_name": "例会",
    "next_date": "2026-06-24",
    "start_time": "19:00",
    "end_time": "21:00",
    "recurrence": "第4水曜",
    "address": "愛媛県四国中央市寒川町1390",
    "prefecture": "愛媛県",
    "latitude": 33.965981,
    "longitude": 133.516953
  },
  {
    "id": 1389,
    "meeting_name": "例会",
    "next_date": "2026-06-24",
    "start_time": "19:00",
    "end_time": "21:00",
    "recurrence": "第4水曜",
    "address": "愛媛県西条市周布401-1",
    "prefecture": "愛媛県",
    "latitude": 33.92749,
    "longitude": 133.082214
  },
  {
    "id": 725,
    "meeting_name": "例会",
    "next_date": "2026-06-24",
    "start_time": "19:00",
    "end_time": "21:00",
    "recurrence": "第1・第2・第3・第4・第5水曜",
    "address": "南魚沼市浦佐５１７５−１",
    "prefecture": "新潟県",
    "latitude": 37.167206,
    "longitude": 138.934433
  },
  {
    "id": 436,
    "meeting_name": "北部断酒会 大田原支部例会",
    "next_date": "2026-06-24",
    "start_time": "19:00",
    "end_time": "21:00",
    "recurrence": "毎週水曜",
    "address": "栃木県大田原市本町1-3",
    "prefecture": "栃木県",
    "latitude": 36.8711603,
    "longitude": 140.0171612
  },
  {
    "id": 436,
    "meeting_name": "大田原支部例会",
    "next_date": "2026-06-24",
    "start_time": "19:00",
    "end_time": "21:00",
    "recurrence": "第1・第2・第4・第5水曜",
    "address": "栃木県大田原市本町1-3",
    "prefecture": "栃木県",
    "latitude": 36.8711603,
    "longitude": 140.0171612
  },
  {
    "id": 438,
    "meeting_name": "北部断酒会 矢板支部例会",
    "next_date": "2026-06-24",
    "start_time": "19:00",
    "end_time": "21:00",
    "recurrence": "毎週水曜",
    "address": "栃木県矢板市本町5-4",
    "prefecture": "栃木県",
    "latitude": 36.8056007,
    "longitude": 139.9224503
  },
  {
    "id": 438,
    "meeting_name": "矢板支部例会",
    "next_date": "2026-06-24",
    "start_time": "19:00",
    "end_time": "21:00",
    "recurrence": "第1・第2・第4・第5水曜",
    "address": "栃木県矢板市本町5-4",
    "prefecture": "栃木県",
    "latitude": 36.8056007,
    "longitude": 139.9224503
  },
  {
    "id": 1645,
    "meeting_name": "那覇古島断酒会例会",
    "next_date": "2026-06-24",
    "start_time": "19:00",
    "end_time": "21:00",
    "recurrence": "第1・第2・第3・第4・第5水曜",
    "address": "那覇市古島２丁目３１−１",
    "prefecture": "沖縄県",
    "latitude": 26.226742,
    "longitude": 127.709892
  },
  {
    "id": 1646,
    "meeting_name": "那覇断酒会",
    "next_date": "2026-06-24",
    "start_time": "19:00",
    "end_time": "21:00",
    "recurrence": "第1・第2・第3・第4・第5水曜",
    "address": "那覇市与儀１丁目３−２１",
    "prefecture": "沖縄県",
    "latitude": 26.206795,
    "longitude": 127.693863
  },
  {
    "id": 811,
    "meeting_name": "例会",
    "next_date": "2026-06-24",
    "start_time": "19:00",
    "end_time": "21:00",
    "recurrence": "第1・第2・第3・第4・第5水曜",
    "address": "東近江市八日市清水１丁目１−２",
    "prefecture": "滋賀県",
    "latitude": 35.112061,
    "longitude": 136.194061
  },
  {
    "id": 1558,
    "meeting_name": "夜間例会",
    "next_date": "2026-06-24",
    "start_time": "19:00",
    "end_time": "21:00",
    "recurrence": "第1・第2・第3・第4・第5水曜",
    "address": "熊本市北区弓削5-12-25 弓削病院内",
    "prefecture": "熊本県",
    "latitude": 32.855106,
    "longitude": 130.786774
  },
  {
    "id": 1559,
    "meeting_name": "夜間例会",
    "next_date": "2026-06-24",
    "start_time": "19:00",
    "end_time": "21:00",
    "recurrence": "第1・第2・第3・第4・第5水曜",
    "address": "熊本市北区大窪2丁目6−20",
    "prefecture": "熊本県",
    "latitude": 32.850979,
    "longitude": 130.709732
  },
  {
    "id": 80,
    "meeting_name": "例会",
    "next_date": "2026-06-24",
    "start_time": "19:00",
    "end_time": "21:00",
    "recurrence": "第2・第4水曜",
    "address": "〒244-0003 神奈川県横浜市戸塚区戸塚町１２７ 横浜市戸塚センター",
    "prefecture": "神奈川県",
    "latitude": 35.3979389,
    "longitude": 139.5326778
  },
  {
    "id": 1426,
    "meeting_name": "例会と酒害相談",
    "next_date": "2026-06-24",
    "start_time": "19:00",
    "end_time": "21:00",
    "recurrence": "第1・第2・第3・第4水曜",
    "address": "福岡県久留米市諏訪野町1830−6",
    "prefecture": "福岡県",
    "latitude": 33.306896,
    "longitude": 130.521423
  },
  {
    "id": 1442,
    "meeting_name": "定例会",
    "next_date": "2026-06-24",
    "start_time": "19:00",
    "end_time": "",
    "recurrence": "第2・第4水曜",
    "address": "福岡県大野城市曙町 2-3-2",
    "prefecture": "福岡県",
    "latitude": 33.53545,
    "longitude": 130.479828
  },
  {
    "id": 1445,
    "meeting_name": "小倉断酒友の会",
    "next_date": "2026-06-24",
    "start_time": "19:00",
    "end_time": "21:00",
    "recurrence": "第2・第4水曜",
    "address": "福岡県北九州市小倉北区井堀二丁目 7-4",
    "prefecture": "福岡県",
    "latitude": 33.886658,
    "longitude": 130.85083
  },
  {
    "id": 1468,
    "meeting_name": "久留米市",
    "next_date": "2026-06-24",
    "start_time": "19:00",
    "end_time": "21:00",
    "recurrence": "第4水曜",
    "address": "福岡県久留米市諏訪野町 1830-6",
    "prefecture": "福岡県",
    "latitude": 33.306896,
    "longitude": 130.521423
  },
  {
    "id": 711,
    "meeting_name": "例会",
    "next_date": "2026-06-24",
    "start_time": "19:00",
    "end_time": "21:00",
    "recurrence": "第1・第2・第3・第4・第5水曜",
    "address": "竜ケ崎市馴柴町21-1",
    "prefecture": "茨城県",
    "latitude": 35.929306,
    "longitude": 140.148514
  },
  {
    "id": 761,
    "meeting_name": "定例会",
    "next_date": "2026-06-24",
    "start_time": "19:00",
    "end_time": "21:00",
    "recurrence": "第1・第2・第3・第4・第5水曜",
    "address": "浜松市浜北区小林１２７２－１",
    "prefecture": "静岡県",
    "latitude": 34.791546,
    "longitude": 137.783157
  },
  {
    "id": 1409,
    "meeting_name": "本部例会",
    "next_date": "2026-06-24",
    "start_time": "19:00",
    "end_time": "20:45",
    "recurrence": "第2・第4水曜",
    "address": "高知県高知市葛島4-3-3",
    "prefecture": "高知県",
    "latitude": 33.555725,
    "longitude": 133.573364
  },
  {
    "id": 950,
    "meeting_name": "此花断酒会",
    "next_date": "2026-06-24",
    "start_time": "19:00:00",
    "end_time": "20:45:00",
    "recurrence": "第4水曜",
    "address": "大阪府大阪市此花区西九条2丁目3-15",
    "prefecture": "大阪府",
    "latitude": 34.680748,
    "longitude": 135.466156
  },
  {
    "id": 991,
    "meeting_name": "布施西",
    "next_date": "2026-06-24",
    "start_time": "19:00:00",
    "end_time": "20:45:00",
    "recurrence": "毎週水曜",
    "address": "大阪府東大阪市足代新町14-17",
    "prefecture": "大阪府",
    "latitude": 34.664803,
    "longitude": 135.559204
  },
  {
    "id": 998,
    "meeting_name": "鴻池",
    "next_date": "2026-06-24",
    "start_time": "19:00:00",
    "end_time": "20:45:00",
    "recurrence": "毎週水曜",
    "address": "大阪府東大阪市鴻池町1丁目18-19",
    "prefecture": "大阪府",
    "latitude": 34.699844,
    "longitude": 135.605728
  },
  {
    "id": 1012,
    "meeting_name": "(例会)",
    "next_date": "2026-06-24",
    "start_time": "19:00:00",
    "end_time": "20:50:00",
    "recurrence": "毎週水曜",
    "address": "大阪府泉大津市東雲町9-15",
    "prefecture": "大阪府",
    "latitude": 34.50523,
    "longitude": 135.4104
  },
  {
    "id": 1013,
    "meeting_name": "(例会)",
    "next_date": "2026-06-24",
    "start_time": "19:00:00",
    "end_time": "20:45:00",
    "recurrence": "毎週水曜",
    "address": "大阪府箕面市箕面5丁目11-23",
    "prefecture": "大阪府",
    "latitude": 34.831169,
    "longitude": 135.471313
  },
  {
    "id": 1028,
    "meeting_name": "(例会)",
    "next_date": "2026-06-24",
    "start_time": "19:00:00",
    "end_time": "21:00:00",
    "recurrence": "第1・第2・第3・第4水曜",
    "address": "大阪府阪南市尾崎町1丁目18-15",
    "prefecture": "大阪府",
    "latitude": 34.361382,
    "longitude": 135.2388
  },
  {
    "id": 1736,
    "meeting_name": "平野北",
    "next_date": "2026-06-24",
    "start_time": "19:00:00",
    "end_time": "20:45:00",
    "recurrence": "毎週水曜",
    "address": "",
    "prefecture": "大阪府",
    "latitude": 34.620402,
    "longitude": 135.5556571
  },
  {
    "id": 1744,
    "meeting_name": "茨木市断酒会真砂支部例会",
    "next_date": "2026-06-24",
    "start_time": "19:00:00",
    "end_time": "20:30:00",
    "recurrence": "毎週水曜",
    "address": "",
    "prefecture": "大阪府",
    "latitude": 34.8138141,
    "longitude": 135.5778407
  },
  {
    "id": 1751,
    "meeting_name": "千里",
    "next_date": "2026-06-24",
    "start_time": "19:00:00",
    "end_time": "20:45:00",
    "recurrence": "第1・第2・第3・第4水曜",
    "address": "",
    "prefecture": "大阪府",
    "latitude": 34.791489,
    "longitude": 135.455917
  },
  {
    "id": 1762,
    "meeting_name": "(例会)",
    "next_date": "2026-06-24",
    "start_time": "19:00:00",
    "end_time": "21:00:00",
    "recurrence": "毎週水曜",
    "address": "",
    "prefecture": "大阪府",
    "latitude": 34.578274,
    "longitude": 135.559967
  },
  {
    "id": 1769,
    "meeting_name": "香里",
    "next_date": "2026-06-24",
    "start_time": "19:00:00",
    "end_time": "20:30:00",
    "recurrence": "毎週水曜",
    "address": "",
    "prefecture": "大阪府",
    "latitude": 34.814445,
    "longitude": 135.650833
  },
  {
    "id": 761,
    "meeting_name": "定例会",
    "next_date": "2026-06-24",
    "start_time": "19:00:00",
    "end_time": "",
    "recurrence": "第1・第3・第4水曜",
    "address": "浜松市浜北区小林１２７２－１",
    "prefecture": "静岡県",
    "latitude": 34.791546,
    "longitude": 137.783157
  },
  {
    "id": 1674,
    "meeting_name": "裾野小例会",
    "next_date": "2026-06-24",
    "start_time": "19:00:00",
    "end_time": "",
    "recurrence": "第2・第4水曜",
    "address": "静岡県沼津市",
    "prefecture": "静岡県",
    "latitude": 35.095554,
    "longitude": 138.863617
  },
  {
    "id": 1145,
    "meeting_name": "有田支部例会",
    "next_date": "2026-06-24",
    "start_time": "19:30",
    "end_time": "21:00",
    "recurrence": "第1・第2・第3・第4・第5水曜",
    "address": "和歌山県有田市宮原新町189",
    "prefecture": "和歌山県",
    "latitude": 34.076206,
    "longitude": 135.175659
  },
  {
    "id": 1152,
    "meeting_name": "貴桃支部例会",
    "next_date": "2026-06-24",
    "start_time": "19:30",
    "end_time": "21:30",
    "recurrence": "第1・第2・第3・第4・第5水曜",
    "address": "和歌山県紀の川市貴志川町丸栖658",
    "prefecture": "和歌山県",
    "latitude": 34.237053,
    "longitude": 135.320282
  },
  {
    "id": 1586,
    "meeting_name": "佐伯断酒会 例会",
    "next_date": "2026-06-24",
    "start_time": "19:30",
    "end_time": "21:00",
    "recurrence": "第1・第2・第3・第4・第5水曜",
    "address": "大分県佐伯市大手町２丁目２−２８",
    "prefecture": "大分県",
    "latitude": 32.956005,
    "longitude": 131.893585
  },
  {
    "id": 1592,
    "meeting_name": "大分東断酒会 例会",
    "next_date": "2026-06-24",
    "start_time": "19:30",
    "end_time": "21:30",
    "recurrence": "第1・第2・第3・第4・第5水曜",
    "address": "大分県大分市久原中央 2 丁目 7-30",
    "prefecture": "大分県",
    "latitude": 33.236843,
    "longitude": 131.759201
  },
  {
    "id": 44,
    "meeting_name": "MM豊洲",
    "next_date": "2026-06-24",
    "start_time": "19:30",
    "end_time": "21:30",
    "recurrence": "第4水曜",
    "address": "〒135-0061 東京都江東区豊洲２丁目２−１８",
    "prefecture": "東京都",
    "latitude": 35.6542788,
    "longitude": 139.7952583
  },
  {
    "id": 1702,
    "meeting_name": "焼津藤枝合同ﾐｰﾃｨﾝｸﾞ(指針と規範の読み合わせ)",
    "next_date": "2026-06-24",
    "start_time": "19:30:00",
    "end_time": "",
    "recurrence": "第4水曜",
    "address": "静岡県焼津市大村",
    "prefecture": "静岡県",
    "latitude": 34.874371,
    "longitude": 138.308548
  },
  {
    "id": 65,
    "meeting_name": "こころの広場",
    "next_date": "2026-06-25",
    "start_time": "13:00",
    "end_time": "15:00",
    "recurrence": "毎週木曜",
    "address": "〒338-0002 埼玉県さいたま市中央区下落合１７１２ 103 スカイレジデンシャルタワーズ ノースウィング301・401",
    "prefecture": "埼玉県",
    "latitude": 35.8847567,
    "longitude": 139.6367987
  },
  {
    "id": 65,
    "meeting_name": "本部例会 こころの広場",
    "next_date": "2026-06-25",
    "start_time": "13:00",
    "end_time": "15:30",
    "recurrence": "毎週木曜",
    "address": "〒338-0002 埼玉県さいたま市中央区下落合１７１２ 103 スカイレジデンシャルタワーズ ノースウィング301・401",
    "prefecture": "埼玉県",
    "latitude": 35.8847567,
    "longitude": 139.6367987
  },
  {
    "id": 31,
    "meeting_name": "白菊家族会",
    "next_date": "2026-06-25",
    "start_time": "13:00",
    "end_time": "15:00",
    "recurrence": "第4木曜",
    "address": "〒171-0021 東京都豊島区西池袋２丁目３７−４ Ike･Biz としま産業振興プラザ",
    "prefecture": "東京都",
    "latitude": 35.7277303,
    "longitude": 139.706734
  },
  {
    "id": 1400,
    "meeting_name": "昼間例会",
    "next_date": "2026-06-25",
    "start_time": "13:00",
    "end_time": "15:00",
    "recurrence": "第1・第2・第3・第4・第5木曜",
    "address": "高知県高知市若松町215",
    "prefecture": "高知県",
    "latitude": 33.552803,
    "longitude": 133.564636
  },
  {
    "id": 1046,
    "meeting_name": "三杉会",
    "next_date": "2026-06-25",
    "start_time": "13:30",
    "end_time": "14:30",
    "recurrence": "第1・第2・第3・第4・第5木曜",
    "address": "兵庫県神戸市西区押部谷町西盛566番地",
    "prefecture": "兵庫県",
    "latitude": 34.763626,
    "longitude": 135.026047
  },
  {
    "id": 1019,
    "meeting_name": "昼例会",
    "next_date": "2026-06-25",
    "start_time": "13:30",
    "end_time": "15:30",
    "recurrence": "第4木曜",
    "address": "大阪府茨木市真砂3丁目18-20",
    "prefecture": "大阪府",
    "latitude": 34.79689,
    "longitude": 135.581573
  },
  {
    "id": 1157,
    "meeting_name": "こなんホスピタル家族教室",
    "next_date": "2026-06-25",
    "start_time": "13:30",
    "end_time": "15:30",
    "recurrence": "第4木曜",
    "address": "松江市宍道町白石１２９−１",
    "prefecture": "島根県",
    "latitude": 35.414543,
    "longitude": 132.926224
  },
  {
    "id": 804,
    "meeting_name": "昼例会",
    "next_date": "2026-06-25",
    "start_time": "13:30",
    "end_time": "15:00",
    "recurrence": "第2・第4木曜",
    "address": "滋賀県長浜市平方町1152-2",
    "prefecture": "滋賀県",
    "latitude": 35.378513,
    "longitude": 136.285904
  },
  {
    "id": 1453,
    "meeting_name": "新門司病院支部 例会",
    "next_date": "2026-06-25",
    "start_time": "13:30",
    "end_time": "15:30",
    "recurrence": "第1・第2・第3・第4・第5木曜",
    "address": "福岡県北九州市門司区猿喰６１５",
    "prefecture": "福岡県",
    "latitude": 33.896404,
    "longitude": 130.97551
  },
  {
    "id": 1224,
    "meeting_name": "県精神科医療センター",
    "next_date": "2026-06-25",
    "start_time": "13:45",
    "end_time": "15:15",
    "recurrence": "第1・第2・第3・第4・第5木曜",
    "address": "岡山県岡山市北区鹿田本町３−１６",
    "prefecture": "岡山県",
    "latitude": 34.650574,
    "longitude": 133.916702
  },
  {
    "id": 1493,
    "meeting_name": "新門司病院週例会",
    "next_date": "2026-06-25",
    "start_time": "13:45",
    "end_time": "15:45",
    "recurrence": "第1・第2・第3・第4・第5木曜",
    "address": "北九州市門司区猿喰615",
    "prefecture": "福岡県",
    "latitude": 33.896404,
    "longitude": 130.97551
  },
  {
    "id": 1722,
    "meeting_name": "例会",
    "next_date": "2026-06-25",
    "start_time": "14:00",
    "end_time": "15:30",
    "recurrence": "第2・第4木曜",
    "address": "京都府南丹市八木町西田金井畠9",
    "prefecture": "京都府",
    "latitude": 35.02124,
    "longitude": 135.755615
  },
  {
    "id": 904,
    "meeting_name": "昼例会",
    "next_date": "2026-06-25",
    "start_time": "14:00",
    "end_time": "16:00",
    "recurrence": "第2・第4木曜",
    "address": "大阪府八尾市清水町1丁目2-5",
    "prefecture": "大阪府",
    "latitude": 34.625702,
    "longitude": 135.60199
  },
  {
    "id": 1525,
    "meeting_name": "例会",
    "next_date": "2026-06-25",
    "start_time": "14:00",
    "end_time": "16:00",
    "recurrence": "第4木曜",
    "address": "長崎市布巻町88-1",
    "prefecture": "長崎県",
    "latitude": 32.651814,
    "longitude": 129.826828
  },
  {
    "id": 1722,
    "meeting_name": "船井",
    "next_date": "2026-06-25",
    "start_time": "14:00:00",
    "end_time": "15:30:00",
    "recurrence": "第4木曜",
    "address": "京都府南丹市八木町西田金井畠9",
    "prefecture": "京都府",
    "latitude": 35.02124,
    "longitude": 135.755615
  },
  {
    "id": 1337,
    "meeting_name": "ミーティング",
    "next_date": "2026-06-25",
    "start_time": "15:00",
    "end_time": "16:30",
    "recurrence": "第4木曜",
    "address": "香川県高松市牟礼町大町1463-2",
    "prefecture": "香川県",
    "latitude": 34.334812,
    "longitude": 134.145325
  },
  {
    "id": 1132,
    "meeting_name": "田原本",
    "next_date": "2026-06-25",
    "start_time": "18:00",
    "end_time": "19:45",
    "recurrence": "第1・第2・第3・第4・第5木曜",
    "address": "奈良県磯城郡田原本町阪手233-1",
    "prefecture": "奈良県",
    "latitude": 34.557388,
    "longitude": 135.802231
  },
  {
    "id": 738,
    "meeting_name": "例会",
    "next_date": "2026-06-25",
    "start_time": "18:00",
    "end_time": "20:00",
    "recurrence": "第4木曜",
    "address": "中新川郡上市町南町１９",
    "prefecture": "富山県",
    "latitude": 36.703735,
    "longitude": 137.364105
  },
  {
    "id": 1320,
    "meeting_name": "例会",
    "next_date": "2026-06-25",
    "start_time": "18:00",
    "end_time": "20:00",
    "recurrence": "第4木曜",
    "address": "徳島県小松島市立江町黒岩78",
    "prefecture": "徳島県",
    "latitude": 33.975643,
    "longitude": 134.60498
  },
  {
    "id": 1324,
    "meeting_name": "例会",
    "next_date": "2026-06-25",
    "start_time": "18:00",
    "end_time": "20:00",
    "recurrence": "第2・第4木曜",
    "address": "徳島県三好市池田町字マチ2542-4",
    "prefecture": "徳島県",
    "latitude": 34.02858,
    "longitude": 133.801773
  },
  {
    "id": 1723,
    "meeting_name": "例会",
    "next_date": "2026-06-25",
    "start_time": "18:30",
    "end_time": "20:00",
    "recurrence": "第1・第2・第3・第4・第5木曜",
    "address": "京都府北区紫野西船岡町2",
    "prefecture": "京都府",
    "latitude": 35.02124,
    "longitude": 135.755615
  },
  {
    "id": 1058,
    "meeting_name": "小田支部例会",
    "next_date": "2026-06-25",
    "start_time": "18:30",
    "end_time": "20:00",
    "recurrence": "第1・第2・第3・第4・第5木曜",
    "address": "兵庫県尼崎市長洲中通1−6−16",
    "prefecture": "兵庫県",
    "latitude": 34.730839,
    "longitude": 135.435028
  },
  {
    "id": 256,
    "meeting_name": "船橋例会",
    "next_date": "2026-06-25",
    "start_time": "18:30",
    "end_time": "20:30",
    "recurrence": "第1・第4木曜",
    "address": "〒274-0825 千葉県船橋市前原西２丁目２１−２１",
    "prefecture": "千葉県",
    "latitude": 35.6927812,
    "longitude": 140.0227357
  },
  {
    "id": 970,
    "meeting_name": "香里園支部例会",
    "next_date": "2026-06-25",
    "start_time": "18:30",
    "end_time": "20:15",
    "recurrence": "第1・第2・第3・第4・第5木曜",
    "address": "大阪府寝屋川市大利町2-14",
    "prefecture": "大阪府",
    "latitude": 34.76543,
    "longitude": 135.618942
  },
  {
    "id": 1134,
    "meeting_name": "西奈良例会",
    "next_date": "2026-06-25",
    "start_time": "18:30",
    "end_time": "20:00",
    "recurrence": "第2・第4木曜",
    "address": "奈良県奈良市学園南3-1-5",
    "prefecture": "奈良県",
    "latitude": 34.696838,
    "longitude": 135.750397
  },
  {
    "id": 1237,
    "meeting_name": "例会",
    "next_date": "2026-06-25",
    "start_time": "18:30",
    "end_time": "20:30",
    "recurrence": "第2・第4木曜",
    "address": "岡山県倉敷市笹沖１８０",
    "prefecture": "岡山県",
    "latitude": 34.572376,
    "longitude": 133.764206
  },
  {
    "id": 1256,
    "meeting_name": "倉敷支部",
    "next_date": "2026-06-25",
    "start_time": "18:30",
    "end_time": "20:30",
    "recurrence": "第2・第4木曜",
    "address": "倉敷市笹沖180番地",
    "prefecture": "岡山県",
    "latitude": 34.572376,
    "longitude": 133.764206
  },
  {
    "id": 6,
    "meeting_name": "港断酒会　懇談会",
    "next_date": "2026-06-25",
    "start_time": "18:30",
    "end_time": "20:00",
    "recurrence": "第4木曜",
    "address": "〒108-0014 東京都港区芝５丁目１８−２ 都営芝五丁目アパート2号棟",
    "prefecture": "東京都",
    "latitude": 35.6482637,
    "longitude": 139.7483749
  },
  {
    "id": 6,
    "meeting_name": "港断酒会",
    "next_date": "2026-06-25",
    "start_time": "18:30",
    "end_time": "20:30",
    "recurrence": "第2・第4木曜",
    "address": "〒108-0014 東京都港区芝５丁目１８−２ 都営芝五丁目アパート2号棟",
    "prefecture": "東京都",
    "latitude": 35.6482637,
    "longitude": 139.7483749
  },
  {
    "id": 9,
    "meeting_name": "墨田断酒会　第2例会",
    "next_date": "2026-06-25",
    "start_time": "18:30",
    "end_time": "20:30",
    "recurrence": "第4木曜",
    "address": "〒156-0052 東京都世田谷区経堂３丁目３７−１３",
    "prefecture": "東京都",
    "latitude": 35.651765,
    "longitude": 139.632168
  },
  {
    "id": 10,
    "meeting_name": "世田谷断酒会　五心会",
    "next_date": "2026-06-25",
    "start_time": "18:30",
    "end_time": "20:30",
    "recurrence": "第4木曜",
    "address": "〒154-0004 東京都世田谷区太子堂１丁目１４−２０ 世田谷区立太子堂区民センター",
    "prefecture": "東京都",
    "latitude": 35.6428861,
    "longitude": 139.6736244
  },
  {
    "id": 23,
    "meeting_name": "墨田断酒会　第2例会",
    "next_date": "2026-06-25",
    "start_time": "18:30",
    "end_time": "20:30",
    "recurrence": "第4木曜",
    "address": "〒130-0026 東京都墨田区両国２丁目２０−１２ ライオンズステーションプラザ両国 １０１",
    "prefecture": "東京都",
    "latitude": 35.6953018,
    "longitude": 139.7926487
  },
  {
    "id": 1477,
    "meeting_name": "門司松ヶ江病院支部 例会",
    "next_date": "2026-06-25",
    "start_time": "18:30",
    "end_time": "20:30",
    "recurrence": "第1・第2・第3・第4・第5木曜",
    "address": "福岡県北九州市門司区畑３５５",
    "prefecture": "福岡県",
    "latitude": 33.886688,
    "longitude": 130.974167
  },
  {
    "id": 1497,
    "meeting_name": "松ヶ江病院支部 夜間例会",
    "next_date": "2026-06-25",
    "start_time": "18:30",
    "end_time": "20:30",
    "recurrence": "第1・第2・第3・第4・第5木曜",
    "address": "北九州市門司区大字畑355番地",
    "prefecture": "福岡県",
    "latitude": 33.886688,
    "longitude": 130.974167
  },
  {
    "id": 1723,
    "meeting_name": "洛北",
    "next_date": "2026-06-25",
    "start_time": "18:30:00",
    "end_time": "20:00:00",
    "recurrence": "毎週木曜",
    "address": "京都府北区紫野西船岡町2",
    "prefecture": "京都府",
    "latitude": 35.02124,
    "longitude": 135.755615
  },
  {
    "id": 1767,
    "meeting_name": "香里園",
    "next_date": "2026-06-25",
    "start_time": "18:30:00",
    "end_time": "20:15:00",
    "recurrence": "毎週木曜",
    "address": "",
    "prefecture": "大阪府",
    "latitude": 34.766109,
    "longitude": 135.628052
  },
  {
    "id": 848,
    "meeting_name": "例会",
    "next_date": "2026-06-25",
    "start_time": "18:40",
    "end_time": "20:40",
    "recurrence": "第1・第2・第3・第4・第5木曜",
    "address": "京都府京都市中京区壬生坊城町19-4",
    "prefecture": "京都府",
    "latitude": 35.003906,
    "longitude": 135.74585
  },
  {
    "id": 859,
    "meeting_name": "山科支部家族例会",
    "next_date": "2026-06-25",
    "start_time": "18:40",
    "end_time": "20:40",
    "recurrence": "第4木曜",
    "address": "京都市山科区竹鼻四丁野町34-1",
    "prefecture": "京都府",
    "latitude": 34.986221,
    "longitude": 135.816452
  },
  {
    "id": 868,
    "meeting_name": "例会",
    "next_date": "2026-06-25",
    "start_time": "18:40",
    "end_time": "20:40",
    "recurrence": "第1・第2・第3・第4・第5木曜",
    "address": "京都府京都市山科区竹鼻4丁野町34-1",
    "prefecture": "京都府",
    "latitude": 34.986221,
    "longitude": 135.816452
  },
  {
    "id": 868,
    "meeting_name": "家族会",
    "next_date": "2026-06-25",
    "start_time": "18:40",
    "end_time": "20:40",
    "recurrence": "第4木曜",
    "address": "京都府京都市山科区竹鼻4丁野町34-1",
    "prefecture": "京都府",
    "latitude": 34.986221,
    "longitude": 135.816452
  },
  {
    "id": 1721,
    "meeting_name": "例会",
    "next_date": "2026-06-25",
    "start_time": "18:40",
    "end_time": "20:40",
    "recurrence": "第1・第2・第3・第4・第5木曜",
    "address": "京都府山科区竹鼻四丁野町34-1",
    "prefecture": "京都府",
    "latitude": 35.011669,
    "longitude": 135.768112
  },
  {
    "id": 1721,
    "meeting_name": "山科",
    "next_date": "2026-06-25",
    "start_time": "18:40:00",
    "end_time": "20:40:00",
    "recurrence": "毎週木曜",
    "address": "京都府山科区竹鼻四丁野町34-1",
    "prefecture": "京都府",
    "latitude": 35.011669,
    "longitude": 135.768112
  },
  {
    "id": 1043,
    "meeting_name": "例会",
    "next_date": "2026-06-25",
    "start_time": "18:45",
    "end_time": "20:45",
    "recurrence": "第1・第2・第3・第4・第5木曜",
    "address": "大阪府高石市綾園1丁目9-1",
    "prefecture": "大阪府",
    "latitude": 34.521965,
    "longitude": 135.433899
  },
  {
    "id": 887,
    "meeting_name": "例会",
    "next_date": "2026-06-25",
    "start_time": "18:50",
    "end_time": "20:50",
    "recurrence": "第1・第2・第3・第4・第5木曜",
    "address": "京都府京都市北区紫野北花ノ坊町18",
    "prefecture": "京都府",
    "latitude": 35.042404,
    "longitude": 135.737671
  },
  {
    "id": 1051,
    "meeting_name": "例会",
    "next_date": "2026-06-25",
    "start_time": "18:50",
    "end_time": "20:40",
    "recurrence": "第1・第2・第3・第4・第5木曜",
    "address": "兵庫県川西市日高市1-2",
    "prefecture": "兵庫県",
    "latitude": 34.833298,
    "longitude": 135.41272
  },
  {
    "id": 771,
    "meeting_name": "鈴鹿例会",
    "next_date": "2026-06-25",
    "start_time": "19:00",
    "end_time": "21:00",
    "recurrence": "第2・第4木曜",
    "address": "三重県鈴鹿市若松中2丁目3-8",
    "prefecture": "三重県",
    "latitude": 34.86021,
    "longitude": 136.613129
  },
  {
    "id": 772,
    "meeting_name": "伊勢例会",
    "next_date": "2026-06-25",
    "start_time": "19:00",
    "end_time": "21:00",
    "recurrence": "第2・第4・第5木曜",
    "address": "三重県伊勢市岡本町2丁目2-30",
    "prefecture": "三重県",
    "latitude": 34.484848,
    "longitude": 136.711502
  },
  {
    "id": 773,
    "meeting_name": "志摩例会",
    "next_date": "2026-06-25",
    "start_time": "19:00",
    "end_time": "21:00",
    "recurrence": "第2・第4・第5木曜",
    "address": "三重県志摩市磯部町迫間878-9",
    "prefecture": "三重県",
    "latitude": 34.374275,
    "longitude": 136.804489
  },
  {
    "id": 828,
    "meeting_name": "本部例会",
    "next_date": "2026-06-25",
    "start_time": "19:00",
    "end_time": "21:00",
    "recurrence": "第4木曜",
    "address": "京都府福知山市昭和新町105",
    "prefecture": "京都府",
    "latitude": 35.304604,
    "longitude": 135.11673
  },
  {
    "id": 842,
    "meeting_name": "例会",
    "next_date": "2026-06-25",
    "start_time": "19:00",
    "end_time": "20:50",
    "recurrence": "第1・第2・第3・第4木曜",
    "address": "京都府京都市伏見区鷹匠町39-2",
    "prefecture": "京都府",
    "latitude": 34.936039,
    "longitude": 135.761414
  },
  {
    "id": 893,
    "meeting_name": "例会",
    "next_date": "2026-06-25",
    "start_time": "19:00",
    "end_time": "21:00",
    "recurrence": "第1・第2・第3・第4・第5木曜",
    "address": "京都府南丹市八木町西田金井畠9",
    "prefecture": "京都府",
    "latitude": 35.074024,
    "longitude": 135.537949
  },
  {
    "id": 1515,
    "meeting_name": "小城断酒会 例会",
    "next_date": "2026-06-25",
    "start_time": "19:00",
    "end_time": "21:00",
    "recurrence": "第4木曜",
    "address": "佐賀県小城市牛津町柿樋瀬１１００−１",
    "prefecture": "佐賀県",
    "latitude": 33.250298,
    "longitude": 130.201889
  },
  {
    "id": 1072,
    "meeting_name": "北神戸支部例会",
    "next_date": "2026-06-25",
    "start_time": "19:00",
    "end_time": "21:00",
    "recurrence": "第1・第2・第3・第4・第5木曜",
    "address": "兵庫県神戸市北区鈴蘭台西町1-22-1",
    "prefecture": "兵庫県",
    "latitude": 34.727188,
    "longitude": 135.144012
  },
  {
    "id": 1073,
    "meeting_name": "園田支部例会",
    "next_date": "2026-06-25",
    "start_time": "19:00",
    "end_time": "20:45",
    "recurrence": "第1・第2・第3・第4・第5木曜",
    "address": "兵庫県尼崎市東園田町4-12-4",
    "prefecture": "兵庫県",
    "latitude": 34.756588,
    "longitude": 135.446045
  },
  {
    "id": 685,
    "meeting_name": "本例会",
    "next_date": "2026-06-25",
    "start_time": "19:00",
    "end_time": "21:00",
    "recurrence": "第4木曜",
    "address": "旭川市東光10条3丁目",
    "prefecture": "北海道",
    "latitude": 43.745911,
    "longitude": 142.396255
  },
  {
    "id": 1142,
    "meeting_name": "西支部例会",
    "next_date": "2026-06-25",
    "start_time": "19:00",
    "end_time": "21:00",
    "recurrence": "第1・第2・第4・第5木曜",
    "address": "和歌山県和歌山市松江北2-20-7",
    "prefecture": "和歌山県",
    "latitude": 34.249157,
    "longitude": 135.134354
  },
  {
    "id": 151,
    "meeting_name": "川口例会",
    "next_date": "2026-06-25",
    "start_time": "19:00",
    "end_time": "21:00",
    "recurrence": "第2・第4木曜",
    "address": "川口市幸町３－８－３３",
    "prefecture": "埼玉県",
    "latitude": 35.8054912,
    "longitude": 139.7178743
  },
  {
    "id": 936,
    "meeting_name": "例会",
    "next_date": "2026-06-25",
    "start_time": "19:00",
    "end_time": "20:45",
    "recurrence": "第1・第2・第3・第4・第5木曜",
    "address": "大阪府大阪市北区本庄東3丁目8-2",
    "prefecture": "大阪府",
    "latitude": 34.715591,
    "longitude": 135.508667
  },
  {
    "id": 948,
    "meeting_name": "例会",
    "next_date": "2026-06-25",
    "start_time": "19:00",
    "end_time": "20:45",
    "recurrence": "第1・第2・第3・第4木曜",
    "address": "大阪府大阪市東成区大今里西3丁目2-17",
    "prefecture": "大阪府",
    "latitude": 34.668411,
    "longitude": 135.541351
  },
  {
    "id": 953,
    "meeting_name": "淀川東例会",
    "next_date": "2026-06-25",
    "start_time": "19:00",
    "end_time": "20:45",
    "recurrence": "第1・第2・第3・第4・第5木曜",
    "address": "大阪府大阪市淀川区宮原1丁目18-14",
    "prefecture": "大阪府",
    "latitude": 34.737923,
    "longitude": 135.499832
  },
  {
    "id": 957,
    "meeting_name": "西成南例会",
    "next_date": "2026-06-25",
    "start_time": "19:00",
    "end_time": "20:45",
    "recurrence": "第1・第2・第3・第4・第5木曜",
    "address": "大阪府大阪市西成区松3丁目2-35",
    "prefecture": "大阪府",
    "latitude": 34.640984,
    "longitude": 135.48912
  },
  {
    "id": 980,
    "meeting_name": "豊中支部例会",
    "next_date": "2026-06-25",
    "start_time": "19:00",
    "end_time": "20:45",
    "recurrence": "第1・第2・第3・第4・第5木曜",
    "address": "大阪府豊中市中桜塚2丁目28-8",
    "prefecture": "大阪府",
    "latitude": 34.778934,
    "longitude": 135.467804
  },
  {
    "id": 987,
    "meeting_name": "若江支部例会",
    "next_date": "2026-06-25",
    "start_time": "19:00",
    "end_time": "20:45",
    "recurrence": "第1・第2・第3・第4・第5木曜",
    "address": "大阪府東大阪市岩田町4丁目3-22",
    "prefecture": "大阪府",
    "latitude": 34.663422,
    "longitude": 135.607834
  },
  {
    "id": 1022,
    "meeting_name": "貝塚支部例会",
    "next_date": "2026-06-25",
    "start_time": "19:00",
    "end_time": "21:00",
    "recurrence": "第1・第2・第3・第4・第5木曜",
    "address": "大阪府貝塚市畠中1丁目10-1",
    "prefecture": "大阪府",
    "latitude": 34.438396,
    "longitude": 135.359177
  },
  {
    "id": 1031,
    "meeting_name": "富田支部例会",
    "next_date": "2026-06-25",
    "start_time": "19:00",
    "end_time": "21:00",
    "recurrence": "第1・第2・第3・第4・第5木曜",
    "address": "大阪府高槻市富田町5丁目17-1",
    "prefecture": "大阪府",
    "latitude": 34.830853,
    "longitude": 135.595123
  },
  {
    "id": 736,
    "meeting_name": "例会",
    "next_date": "2026-06-25",
    "start_time": "19:00",
    "end_time": "21:00",
    "recurrence": "第1・第2・第3・第4・第5木曜",
    "address": "富山市水橋舘町３１２−１",
    "prefecture": "富山県",
    "latitude": 36.75032,
    "longitude": 137.310989
  },
  {
    "id": 737,
    "meeting_name": "例会",
    "next_date": "2026-06-25",
    "start_time": "19:00",
    "end_time": "21:00",
    "recurrence": "第1・第2・第3・第4・第5木曜",
    "address": "氷見市中央町１２−２１",
    "prefecture": "富山県",
    "latitude": 36.860023,
    "longitude": 136.985229
  },
  {
    "id": 1287,
    "meeting_name": "コアプラザかの 例会",
    "next_date": "2026-06-25",
    "start_time": "19:00",
    "end_time": "20:30",
    "recurrence": "第4木曜",
    "address": "山口県周南市鹿野上９１０",
    "prefecture": "山口県",
    "latitude": 34.253082,
    "longitude": 131.853287
  },
  {
    "id": 1297,
    "meeting_name": "宇部市多世代ふれあいセンター 例会",
    "next_date": "2026-06-25",
    "start_time": "19:00",
    "end_time": "21:00",
    "recurrence": "第4木曜",
    "address": "山口県宇部市琴芝町２丁目４−２５",
    "prefecture": "山口県",
    "latitude": 33.952831,
    "longitude": 131.25267
  },
  {
    "id": 1314,
    "meeting_name": "阿東地域交流センター 例会",
    "next_date": "2026-06-25",
    "start_time": "19:00",
    "end_time": "21:00",
    "recurrence": "第4木曜",
    "address": "山口県山口市阿東徳佐中３４２５−１",
    "prefecture": "山口県",
    "latitude": 34.405739,
    "longitude": 131.719284
  },
  {
    "id": 1266,
    "meeting_name": "自修会例会",
    "next_date": "2026-06-25",
    "start_time": "19:00",
    "end_time": "21:00",
    "recurrence": "第4木曜",
    "address": "津山市山下４６",
    "prefecture": "岡山県",
    "latitude": 35.062572,
    "longitude": 134.001114
  },
  {
    "id": 1191,
    "meeting_name": "例会",
    "next_date": "2026-06-25",
    "start_time": "19:00",
    "end_time": "21:00",
    "recurrence": "第2・第4木曜",
    "address": "出雲市斐川町福富",
    "prefecture": "島根県",
    "latitude": 35.404778,
    "longitude": 132.826645
  },
  {
    "id": 1199,
    "meeting_name": "例会",
    "next_date": "2026-06-25",
    "start_time": "19:00",
    "end_time": "21:00",
    "recurrence": "第1・第2・第4木曜",
    "address": "江津市嘉久志町イ８９９−７４",
    "prefecture": "島根県",
    "latitude": 35.004784,
    "longitude": 132.214111
  },
  {
    "id": 1216,
    "meeting_name": "新生園　園内例会",
    "next_date": "2026-06-25",
    "start_time": "19:00",
    "end_time": "20:30",
    "recurrence": "第2・第4木曜",
    "address": "松江市八束町波入４３−２",
    "prefecture": "島根県",
    "latitude": 35.492077,
    "longitude": 133.174088
  },
  {
    "id": 1218,
    "meeting_name": "松江赤十字病院院内例会",
    "next_date": "2026-06-25",
    "start_time": "19:00",
    "end_time": "21:00",
    "recurrence": "第4木曜",
    "address": "松江市母衣町２００",
    "prefecture": "島根県",
    "latitude": 35.470592,
    "longitude": 133.057068
  },
  {
    "id": 1395,
    "meeting_name": "例会",
    "next_date": "2026-06-25",
    "start_time": "19:00",
    "end_time": "21:00",
    "recurrence": "第1・第2・第3・第4・第5木曜",
    "address": "愛媛県松山市美沢1丁目10-38",
    "prefecture": "愛媛県",
    "latitude": 33.851223,
    "longitude": 132.750595
  },
  {
    "id": 244,
    "meeting_name": "八王子例会",
    "next_date": "2026-06-25",
    "start_time": "19:00",
    "end_time": "21:00",
    "recurrence": "第4・第5木曜",
    "address": "〒192-0082 東京都八王子市東町５−６",
    "prefecture": "東京都",
    "latitude": 35.658532,
    "longitude": 139.3399542
  },
  {
    "id": 434,
    "meeting_name": "宇都宮断酒会 中央支部例会",
    "next_date": "2026-06-25",
    "start_time": "19:00",
    "end_time": "21:00",
    "recurrence": "毎週木曜",
    "address": "栃木県宇都宮市中央1-11-13",
    "prefecture": "栃木県",
    "latitude": 36.5577759,
    "longitude": 139.8839292
  },
  {
    "id": 434,
    "meeting_name": "中央支部例会",
    "next_date": "2026-06-25",
    "start_time": "19:00",
    "end_time": "21:00",
    "recurrence": "第1・第2・第3・第4・第5木曜",
    "address": "栃木県宇都宮市中央1-11-13",
    "prefecture": "栃木県",
    "latitude": 36.5577759,
    "longitude": 139.8839292
  },
  {
    "id": 441,
    "meeting_name": "西部断酒会 鹿沼支部例会",
    "next_date": "2026-06-25",
    "start_time": "19:00",
    "end_time": "21:00",
    "recurrence": "毎週木曜",
    "address": "栃木県鹿沼市文化橋1982-18",
    "prefecture": "栃木県",
    "latitude": 36.5697049,
    "longitude": 139.7515117
  },
  {
    "id": 441,
    "meeting_name": "鹿沼支部例会",
    "next_date": "2026-06-25",
    "start_time": "19:00",
    "end_time": "21:00",
    "recurrence": "第1・第2・第3・第4・第5木曜",
    "address": "栃木県鹿沼市文化橋1982-18",
    "prefecture": "栃木県",
    "latitude": 36.5697049,
    "longitude": 139.7515117
  },
  {
    "id": 1627,
    "meeting_name": "南部断酒会",
    "next_date": "2026-06-25",
    "start_time": "19:00",
    "end_time": "21:00",
    "recurrence": "第1・第2・第3・第4・第5木曜",
    "address": "島尻郡南風原町宮平２１２",
    "prefecture": "沖縄県",
    "latitude": 26.198772,
    "longitude": 127.738281
  },
  {
    "id": 1631,
    "meeting_name": "小禄断酒会",
    "next_date": "2026-06-25",
    "start_time": "19:00",
    "end_time": "21:00",
    "recurrence": "第1・第2・第3・第4・第5木曜",
    "address": "那覇市金城３丁目５−４",
    "prefecture": "沖縄県",
    "latitude": 26.200237,
    "longitude": 127.664215
  },
  {
    "id": 1648,
    "meeting_name": "北谷断酒会",
    "next_date": "2026-06-25",
    "start_time": "19:00",
    "end_time": "21:00",
    "recurrence": "第1・第2・第3・第4・第5木曜",
    "address": "中頭郡北谷町桑江７３１",
    "prefecture": "沖縄県",
    "latitude": 26.319452,
    "longitude": 127.765953
  },
  {
    "id": 790,
    "meeting_name": "例会",
    "next_date": "2026-06-25",
    "start_time": "19:00",
    "end_time": "21:00",
    "recurrence": "第1・第2・第3・第4・第5木曜",
    "address": "滋賀県大津市一里山3丁目16-1",
    "prefecture": "滋賀県",
    "latitude": 34.983856,
    "longitude": 135.93512
  },
  {
    "id": 793,
    "meeting_name": "例会",
    "next_date": "2026-06-25",
    "start_time": "19:00",
    "end_time": "21:00",
    "recurrence": "第1・第2・第3・第4・第5木曜",
    "address": "滋賀県栗東市小柿1丁目10-10",
    "prefecture": "滋賀県",
    "latitude": 35.026985,
    "longitude": 135.977249
  },
  {
    "id": 797,
    "meeting_name": "例会",
    "next_date": "2026-06-25",
    "start_time": "19:00",
    "end_time": "21:00",
    "recurrence": "第1・第2・第3・第4・第5木曜",
    "address": "滋賀県甲賀市甲南町竜法師600",
    "prefecture": "滋賀県",
    "latitude": 34.919628,
    "longitude": 136.170532
  },
  {
    "id": 706,
    "meeting_name": "例会",
    "next_date": "2026-06-25",
    "start_time": "19:00",
    "end_time": "21:00",
    "recurrence": "第1・第2・第3・第4・第5木曜",
    "address": "筑西市野殿1371",
    "prefecture": "茨城県",
    "latitude": 36.277996,
    "longitude": 139.966278
  },
  {
    "id": 1725,
    "meeting_name": "南伏見",
    "next_date": "2026-06-25",
    "start_time": "19:00:00",
    "end_time": "20:45:00",
    "recurrence": "毎週木曜",
    "address": "京都府伏見区鷹匠町39-2",
    "prefecture": "京都府",
    "latitude": 35.02124,
    "longitude": 135.755615
  },
  {
    "id": 953,
    "meeting_name": "淀川東",
    "next_date": "2026-06-25",
    "start_time": "19:00:00",
    "end_time": "20:45:00",
    "recurrence": "第2・第4・第5木曜",
    "address": "大阪府大阪市淀川区宮原1丁目18-14",
    "prefecture": "大阪府",
    "latitude": 34.737923,
    "longitude": 135.499832
  },
  {
    "id": 1031,
    "meeting_name": "高槻市断酒会富田支部例会",
    "next_date": "2026-06-25",
    "start_time": "19:00:00",
    "end_time": "21:00:00",
    "recurrence": "毎週木曜",
    "address": "大阪府高槻市富田町5丁目17-1",
    "prefecture": "大阪府",
    "latitude": 34.830853,
    "longitude": 135.595123
  },
  {
    "id": 1737,
    "meeting_name": "東成断酒会",
    "next_date": "2026-06-25",
    "start_time": "19:00:00",
    "end_time": "20:45:00",
    "recurrence": "毎週木曜",
    "address": "",
    "prefecture": "大阪府",
    "latitude": 34.6680639,
    "longitude": 135.5387683
  },
  {
    "id": 1741,
    "meeting_name": "西成断酒会",
    "next_date": "2026-06-25",
    "start_time": "19:00:00",
    "end_time": "20:45:00",
    "recurrence": "毎週木曜",
    "address": "",
    "prefecture": "大阪府",
    "latitude": 34.6344986,
    "longitude": 135.4923744
  },
  {
    "id": 1746,
    "meeting_name": "吹田市断酒会南千里支部例会",
    "next_date": "2026-06-25",
    "start_time": "19:00:00",
    "end_time": "20:30:00",
    "recurrence": "第2・第4木曜",
    "address": "",
    "prefecture": "大阪府",
    "latitude": 34.7929658,
    "longitude": 135.5086081
  },
  {
    "id": 1750,
    "meeting_name": "豊中",
    "next_date": "2026-06-25",
    "start_time": "19:00:00",
    "end_time": "20:45:00",
    "recurrence": "毎週木曜",
    "address": "",
    "prefecture": "大阪府",
    "latitude": 34.7932371,
    "longitude": 135.4473333
  },
  {
    "id": 1754,
    "meeting_name": "貝塚",
    "next_date": "2026-06-25",
    "start_time": "19:00:00",
    "end_time": "21:00:00",
    "recurrence": "毎週木曜",
    "address": "",
    "prefecture": "大阪府",
    "latitude": 34.4376771,
    "longitude": 135.3562282
  },
  {
    "id": 1755,
    "meeting_name": "(例会)",
    "next_date": "2026-06-25",
    "start_time": "19:00:00",
    "end_time": "20:45:00",
    "recurrence": "第1・第2・第3・第4木曜",
    "address": "",
    "prefecture": "大阪府",
    "latitude": 34.520557,
    "longitude": 135.442215
  },
  {
    "id": 1772,
    "meeting_name": "若江",
    "next_date": "2026-06-25",
    "start_time": "19:00:00",
    "end_time": "20:45:00",
    "recurrence": "毎週木曜",
    "address": "",
    "prefecture": "大阪府",
    "latitude": 34.679443,
    "longitude": 135.60083
  },
  {
    "id": 1667,
    "meeting_name": "森 例会",
    "next_date": "2026-06-25",
    "start_time": "19:00:00",
    "end_time": "",
    "recurrence": "毎週木曜",
    "address": "静岡県森町",
    "prefecture": "静岡県",
    "latitude": 34.83559,
    "longitude": 137.927063
  },
  {
    "id": 1667,
    "meeting_name": "森 例会･DVD鑑賞",
    "next_date": "2026-06-25",
    "start_time": "19:00:00",
    "end_time": "",
    "recurrence": "第4木曜",
    "address": "静岡県森町",
    "prefecture": "静岡県",
    "latitude": 34.83559,
    "longitude": 137.927063
  },
  {
    "id": 1678,
    "meeting_name": "小例会･家族会",
    "next_date": "2026-06-25",
    "start_time": "19:00:00",
    "end_time": "",
    "recurrence": "第4木曜",
    "address": "静岡県静岡市清水区",
    "prefecture": "静岡県",
    "latitude": 35.015835,
    "longitude": 138.489716
  },
  {
    "id": 1682,
    "meeting_name": "定例会",
    "next_date": "2026-06-25",
    "start_time": "19:00:00",
    "end_time": "",
    "recurrence": "第4木曜",
    "address": "静岡県島田市",
    "prefecture": "静岡県",
    "latitude": 34.836121,
    "longitude": 138.176941
  },
  {
    "id": 1703,
    "meeting_name": "中伊豆地区例会",
    "next_date": "2026-06-25",
    "start_time": "19:00:00",
    "end_time": "",
    "recurrence": "第4木曜",
    "address": "静岡県伊豆市",
    "prefecture": "静岡県",
    "latitude": 34.97657,
    "longitude": 138.946732
  },
  {
    "id": 1149,
    "meeting_name": "かつらぎ支部例会",
    "next_date": "2026-06-25",
    "start_time": "19:30",
    "end_time": "21:00",
    "recurrence": "第1・第2・第3・第4・第5木曜",
    "address": "和歌山県伊都郡かつらぎ町妙寺450",
    "prefecture": "和歌山県",
    "latitude": 34.297237,
    "longitude": 135.521988
  },
  {
    "id": 1154,
    "meeting_name": "田辺東支部例会",
    "next_date": "2026-06-25",
    "start_time": "19:30",
    "end_time": "21:00",
    "recurrence": "第1・第2・第3・第4・第5木曜",
    "address": "和歌山県田辺市湊1619-8",
    "prefecture": "和歌山県",
    "latitude": 33.732033,
    "longitude": 135.384033
  },
  {
    "id": 1598,
    "meeting_name": "臼杵断酒会 例会",
    "next_date": "2026-06-25",
    "start_time": "19:30",
    "end_time": "21:00",
    "recurrence": "第1・第2・第3・第4・第5木曜",
    "address": "大分県臼杵市平清水7組",
    "prefecture": "大分県",
    "latitude": 33.125832,
    "longitude": 131.804718
  },
  {
    "id": 1594,
    "meeting_name": "宇佐断酒会 例会",
    "next_date": "2026-06-25",
    "start_time": "19:40",
    "end_time": "21:30",
    "recurrence": "第1・第2・第3・第4・第5木曜",
    "address": "大分県宇佐市四日市１１１−２",
    "prefecture": "大分県",
    "latitude": 33.53421,
    "longitude": 131.326767
  },
  {
    "id": 1519,
    "meeting_name": "肥前精神医療センター院内家族会",
    "next_date": "2026-06-26",
    "start_time": "10:00",
    "end_time": "12:00",
    "recurrence": "第2・第4金曜",
    "address": "佐賀県神埼郡吉野ヶ里町三津１６０",
    "prefecture": "佐賀県",
    "latitude": 33.345036,
    "longitude": 130.385849
  },
  {
    "id": 1732,
    "meeting_name": "おはよう例会",
    "next_date": "2026-06-26",
    "start_time": "10:00",
    "end_time": "11:30",
    "recurrence": "第1・第2・第3・第4・第5金曜",
    "address": "",
    "prefecture": "大阪府",
    "latitude": 34.5979975,
    "longitude": 135.5291007
  },
  {
    "id": 1732,
    "meeting_name": "おはよう例会",
    "next_date": "2026-06-26",
    "start_time": "10:00:00",
    "end_time": "11:30:00",
    "recurrence": "毎週金曜",
    "address": "",
    "prefecture": "大阪府",
    "latitude": 34.5979975,
    "longitude": 135.5291007
  },
  {
    "id": 71,
    "meeting_name": "横浜酒害相談：１２階セルフヘルプ第２相談室",
    "next_date": "2026-06-26",
    "start_time": "13:00",
    "end_time": "15:00",
    "recurrence": "第2・第3・第4金曜",
    "address": "〒221-0835 神奈川県横浜市神奈川区鶴屋町２丁目２４−２",
    "prefecture": "神奈川県",
    "latitude": 35.4684095,
    "longitude": 139.6207449
  },
  {
    "id": 1337,
    "meeting_name": "ミーティング",
    "next_date": "2026-06-26",
    "start_time": "13:00",
    "end_time": "14:30",
    "recurrence": "第4金曜",
    "address": "香川県高松市牟礼町大町1463-2",
    "prefecture": "香川県",
    "latitude": 34.334812,
    "longitude": 134.145325
  },
  {
    "id": 912,
    "meeting_name": "昼例会",
    "next_date": "2026-06-26",
    "start_time": "13:30",
    "end_time": "15:30",
    "recurrence": "第4金曜",
    "address": "大阪府吹田市昭和町12-1",
    "prefecture": "大阪府",
    "latitude": 34.762451,
    "longitude": 135.527008
  },
  {
    "id": 1226,
    "meeting_name": "慈圭病院　院内例会",
    "next_date": "2026-06-26",
    "start_time": "13:30",
    "end_time": "15:00",
    "recurrence": "第1・第2・第3・第4・第5金曜",
    "address": "岡山県岡山市南区浦安本町１００−２",
    "prefecture": "岡山県",
    "latitude": 34.602863,
    "longitude": 133.91774
  },
  {
    "id": 816,
    "meeting_name": "例会",
    "next_date": "2026-06-26",
    "start_time": "13:30",
    "end_time": "15:00",
    "recurrence": "第1・第2・第3・第4・第5金曜",
    "address": "滋賀県野洲市辻町433-1",
    "prefecture": "滋賀県",
    "latitude": 35.074188,
    "longitude": 136.046982
  },
  {
    "id": 1747,
    "meeting_name": "吹田市断酒会昼例会",
    "next_date": "2026-06-26",
    "start_time": "13:30:00",
    "end_time": "15:30:00",
    "recurrence": "第4金曜",
    "address": "",
    "prefecture": "大阪府",
    "latitude": 34.7623636,
    "longitude": 135.5275431
  },
  {
    "id": 1665,
    "meeting_name": "昼例会",
    "next_date": "2026-06-26",
    "start_time": "13:30:00",
    "end_time": "15:00:00",
    "recurrence": "第3・第4金曜",
    "address": "静岡県牧之原市牧之原",
    "prefecture": "静岡県",
    "latitude": 34.762508,
    "longitude": 138.13562
  },
  {
    "id": 9,
    "meeting_name": "福生例会",
    "next_date": "2026-06-26",
    "start_time": "14:00",
    "end_time": "16:00",
    "recurrence": "第4金曜",
    "address": "〒156-0052 東京都世田谷区経堂３丁目３７−１３",
    "prefecture": "東京都",
    "latitude": 35.651765,
    "longitude": 139.632168
  },
  {
    "id": 252,
    "meeting_name": "福生例会",
    "next_date": "2026-06-26",
    "start_time": "14:00",
    "end_time": "16:00",
    "recurrence": "第4金曜",
    "address": "〒197-0011 東京都福生市福生２４５５",
    "prefecture": "東京都",
    "latitude": 35.7339173,
    "longitude": 139.3378396
  },
  {
    "id": 1041,
    "meeting_name": "金曜例会",
    "next_date": "2026-06-26",
    "start_time": "14:30",
    "end_time": "16:00",
    "recurrence": "第1・第2・第3・第4・第5金曜",
    "address": "大阪府高槻市安満北の町18-1",
    "prefecture": "大阪府",
    "latitude": 34.862976,
    "longitude": 135.629181
  },
  {
    "id": 1041,
    "meeting_name": "高槻市断酒会金曜例会",
    "next_date": "2026-06-26",
    "start_time": "14:30:00",
    "end_time": "16:00:00",
    "recurrence": "毎週金曜",
    "address": "大阪府高槻市安満北の町18-1",
    "prefecture": "大阪府",
    "latitude": 34.862976,
    "longitude": 135.629181
  },
  {
    "id": 1321,
    "meeting_name": "例会",
    "next_date": "2026-06-26",
    "start_time": "18:00",
    "end_time": "20:00",
    "recurrence": "第2・第4金曜",
    "address": "徳島県阿南市富岡町北通33-1",
    "prefecture": "徳島県",
    "latitude": 33.92136,
    "longitude": 134.662415
  },
  {
    "id": 1350,
    "meeting_name": "志度例会",
    "next_date": "2026-06-26",
    "start_time": "18:00",
    "end_time": "20:00",
    "recurrence": "第4金曜",
    "address": "香川県さぬき市志度３７８５−１０",
    "prefecture": "香川県",
    "latitude": 34.311432,
    "longitude": 134.174911
  },