[
  {
    "id": 547,
    "meeting_name": "荒川断酒会　懇談会",
    "next_date": "2026-06-12",
    "start_time": "10:00",
    "end_time": "11:30",
    "prefecture": "東京都",
    "address": "東日暮里ふれあい館, 日本、〒116-0014 東京都荒川区東日暮里１丁目１７−",
    "latitude": null,
    "longitude": null
  },
  {
    "id": 32,
    "meeting_name": "練馬石神井懇談会",
    "next_date": "2026-06-12",
    "start_time": "18:30",
    "end_time": "20:30",
    "prefecture": "東京都",
    "address": "",
    "latitude": 35.7451911,
    "longitude": 139.6015934
  },
  {
    "id": 19,
    "meeting_name": "荒川例会",
    "next_date": "2026-06-12",
    "start_time": "19:00",
    "end_time": "20:30",
    "prefecture": "東京都",
    "address": "〒116-0014 東京都荒川区東日暮里１丁目１７−１３ 都営東日暮里一丁目アパート１３号棟",
    "latitude": 35.7298096,
    "longitude": 139.7899732
  },
  {
    "id": 416,
    "meeting_name": "荒川懇談会",
    "next_date": "2026-06-12",
    "start_time": "19:00",
    "end_time": "20:30",
    "prefecture": "東京都",
    "address": "東日暮里ふれあい館, 日本、〒116-0014 東京都荒川区東日暮里１丁目１７−",
    "latitude": 35.7300027,
    "longitude": 139.7896524
  },
  {
    "id": 18,
    "meeting_name": "中央断酒会　例会",
    "next_date": "2026-06-13",
    "start_time": "09:30",
    "end_time": "11:00",
    "prefecture": "東京都",
    "address": "",
    "latitude": 35.6911512,
    "longitude": 139.7770967
  },
  {
    "id": 483,
    "meeting_name": "江東断酒会　第１例会",
    "next_date": "2026-06-13",
    "start_time": "09:30",
    "end_time": "11:45",
    "prefecture": "東京都",
    "address": "富岡区民館, 日本、〒135-0047 東京都江東区富岡１丁目１６−１２",
    "latitude": null,
    "longitude": null
  },
  {
    "id": 172,
    "meeting_name": "こころの泉（家族会）",
    "next_date": "2026-06-13",
    "start_time": "13:30",
    "end_time": "15:30",
    "prefecture": "神奈川県",
    "address": "〒253-0044 神奈川県茅ヶ崎市新栄町１２−１２ 茅ヶ崎トラストビル ４階",
    "latitude": 35.332342,
    "longitude": 139.4046304
  },
  {
    "id": 62,
    "meeting_name": "さいたま例会",
    "next_date": "2026-06-13",
    "start_time": "17:00",
    "end_time": "18:15",
    "prefecture": "埼玉県",
    "address": "〒330-0055 埼玉県さいたま市浦和区東高砂町１１−１",
    "latitude": 35.858568,
    "longitude": 139.6590796
  },
  {
    "id": 71,
    "meeting_name": "アメシスト例会(女性限定)",
    "next_date": "2026-06-13",
    "start_time": "18:00",
    "end_time": "20:30",
    "prefecture": "神奈川県",
    "address": "〒221-0835 神奈川県横浜市神奈川区鶴屋町２丁目２４−２",
    "latitude": 35.4684095,
    "longitude": 139.6207449
  },
  {
    "id": 11,
    "meeting_name": "江東例会",
    "next_date": "2026-06-13",
    "start_time": "18:30",
    "end_time": "20:45",
    "prefecture": "東京都",
    "address": "〒135-0047 東京都江東区富岡１丁目１６−１２",
    "latitude": 35.6717671,
    "longitude": 139.7985648
  },
  {
    "id": 69,
    "meeting_name": "さいたま例会",
    "next_date": "2026-06-13",
    "start_time": "19:00",
    "end_time": "20:30",
    "prefecture": "埼玉県",
    "address": "〒330-0063 埼玉県さいたま市東浦和区高砂１１−１",
    "latitude": 35.8574923,
    "longitude": 139.6496729
  },
  {
    "id": 143,
    "meeting_name": "さいたま市浦和区東高砂例会",
    "next_date": "2026-06-13",
    "start_time": "19:00",
    "end_time": "20:30",
    "prefecture": "埼玉県",
    "address": "さいたま市浦和区東高砂町11-1 　浦和パルコ10F",
    "latitude": 35.858568,
    "longitude": 139.6590796
  },
  {
    "id": 508,
    "meeting_name": "川越例会",
    "next_date": "2026-06-13",
    "start_time": "19:00",
    "end_time": "21:00",
    "prefecture": "埼玉県",
    "address": "",
    "latitude": null,
    "longitude": null
  },
  {
    "id": 510,
    "meeting_name": "西部家族会",
    "next_date": "2026-06-13",
    "start_time": "19:00",
    "end_time": "21:00",
    "prefecture": "埼玉県",
    "address": "埼玉県川越市大字砂新田２",
    "latitude": 35.88592424306586,
    "longitude": 139.49678523085643
  },
  {
    "id": 514,
    "meeting_name": "【日程変更】川越例会 → １４日(日)へ変更",
    "next_date": "2026-06-13",
    "start_time": "19:00",
    "end_time": "21:00",
    "prefecture": "埼玉県",
    "address": "",
    "latitude": null,
    "longitude": null
  },
  {
    "id": 515,
    "meeting_name": "【日程変更】西部家族会 → １４日(日)へ変更",
    "next_date": "2026-06-13",
    "start_time": "19:00",
    "end_time": "21:00",
    "prefecture": "埼玉県",
    "address": "",
    "latitude": null,
    "longitude": null
  },
  {
    "id": 583,
    "meeting_name": "■多摩本部例会",
    "next_date": "2026-06-14",
    "start_time": "05:00",
    "end_time": "07:00",
    "prefecture": "東京都",
    "address": "〒186-0003 東京都国立市富士見台２丁目３８−５",
    "latitude": null,
    "longitude": null
  },
  {
    "id": 509,
    "meeting_name": "【日程変更】西部家族会 ← １３日(土)から変更",
    "next_date": "2026-06-14",
    "start_time": "10:00",
    "end_time": "12:00",
    "prefecture": "埼玉県",
    "address": "",
    "latitude": null,
    "longitude": null
  },
  {
    "id": 512,
    "meeting_name": "【日程変更】川越例会 ← １３日(土)から変更",
    "next_date": "2026-06-14",
    "start_time": "10:00",
    "end_time": "12:00",
    "prefecture": "埼玉県",
    "address": "",
    "latitude": null,
    "longitude": null
  },
  {
    "id": 167,
    "meeting_name": "秩父市上宮地例会",
    "next_date": "2026-06-14",
    "start_time": "13:00",
    "end_time": "15:00",
    "prefecture": "埼玉県",
    "address": "秩父市上宮地町27-5",
    "latitude": 36.0026892,
    "longitude": 139.0906726
  },
  {
    "id": 521,
    "meeting_name": "【日程変更】秩父断酒会",
    "next_date": "2026-06-14",
    "start_time": "13:00",
    "end_time": "15:00",
    "prefecture": "埼玉県",
    "address": "秩父市上宮地町27-5",
    "latitude": null,
    "longitude": null
  },
  {
    "id": 9,
    "meeting_name": "世田谷例会",
    "next_date": "2026-06-14",
    "start_time": "14:00",
    "end_time": "16:00",
    "prefecture": "東京都",
    "address": "〒156-0052 東京都世田谷区経堂３丁目３７−１３",
    "latitude": 35.651765,
    "longitude": 139.632168
  },
  {
    "id": 541,
    "meeting_name": "オンライン例会 Zoom",
    "next_date": "2026-06-14",
    "start_time": "18:00",
    "end_time": "20:00",
    "prefecture": "神奈川県",
    "address": "",
    "latitude": null,
    "longitude": null
  },
  {
    "id": 38,
    "meeting_name": "新宿第２例会",
    "next_date": "2026-06-15",
    "start_time": "18:00",
    "end_time": "19:30",
    "prefecture": "東京都",
    "address": "〒169-0075 東京都新宿区高田馬場２丁目１８−１ 新宿区戸塚特別出張所等区民施設",
    "latitude": 35.7144575,
    "longitude": 139.7051045
  },
  {
    "id": 466,
    "meeting_name": "白菊家族会(夜）",
    "next_date": "2026-06-16",
    "start_time": "09:30",
    "end_time": "11:30",
    "prefecture": "東京都",
    "address": "IKE･Biz としま産業振興プラザ, 日本、〒171-0021 東京都豊島区西池袋２丁目３７−４ Ike･Biz としま産業振興プラザ",
    "latitude": null,
    "longitude": null
  },
  {
    "id": 505,
    "meeting_name": "●■連合理事会",
    "next_date": "2026-06-16",
    "start_time": "10:00",
    "end_time": "12:00",
    "prefecture": "東京都",
    "address": "〒191-0011 東京都日野市日野本町７丁目５−２３",
    "latitude": null,
    "longitude": null
  },
  {
    "id": 539,
    "meeting_name": "相談·質問📱090-6656-4355 保坂(今です!）slowhand-1955-y@outlook.jp",
    "next_date": "2026-06-16",
    "start_time": "18:00",
    "end_time": "18:45",
    "prefecture": "神奈川県",
    "address": "平塚市見附町１−",
    "latitude": 34.6815973,
    "longitude": 135.5064694
  },
  {
    "id": 550,
    "meeting_name": "京王断酒会　調布第３懇談会",
    "next_date": "2026-06-17",
    "start_time": "09:30",
    "end_time": "11:30",
    "prefecture": "東京都",
    "address": "",
    "latitude": null,
    "longitude": null
  },
  {
    "id": 518,
    "meeting_name": "浦和昼例会",
    "next_date": "2026-06-17",
    "start_time": "13:30",
    "end_time": "15:00",
    "prefecture": "埼玉県",
    "address": "埼玉県さいたま市浦和区常盤９丁目３０−２２",
    "latitude": 35.87107779834567,
    "longitude": 139.64297681195663
  },
  {
    "id": 248,
    "meeting_name": "国分寺例会",
    "next_date": "2026-06-17",
    "start_time": "19:00",
    "end_time": "21:00",
    "prefecture": "東京都",
    "address": "〒185-0011 東京都国分寺市本多１丁目７−１",
    "latitude": 35.7053251,
    "longitude": 139.4825249
  },
  {
    "id": 516,
    "meeting_name": "【日程変更】西部本部例会 → １９日(金)へ変更",
    "next_date": "2026-06-17",
    "start_time": "19:00",
    "end_time": "21:00",
    "prefecture": "埼玉県",
    "address": "",
    "latitude": null,
    "longitude": null
  },
  {
    "id": 473,
    "meeting_name": "世田谷断酒会　砧懇談会",
    "next_date": "2026-06-18",
    "start_time": "09:30",
    "end_time": "11:30",
    "prefecture": "東京都",
    "address": "世田谷区 砧総合支所, 日本、〒157-8501 東京都世田谷区成城６丁目２−１",
    "latitude": null,
    "longitude": null
  },
  {
    "id": 535,
    "meeting_name": "幸市民館例会　幸市民館　第３会議室",
    "next_date": "2026-06-18",
    "start_time": "10:00",
    "end_time": "11:45",
    "prefecture": "神奈川県",
    "address": "〒212-0023 神奈川県川崎市幸区戸手本町１丁目１１−",
    "latitude": null,
    "longitude": null
  },
  {
    "id": 555,
    "meeting_name": "●立川第二例会",
    "next_date": "2026-06-18",
    "start_time": "10:00",
    "end_time": "12:00",
    "prefecture": "東京都",
    "address": "〒190-0023 東京都立川市柴崎町２丁目１５−８",
    "latitude": 35.694704,
    "longitude": 139.4080884
  },
  {
    "id": 570,
    "meeting_name": "目黒断酒会　例会",
    "next_date": "2026-06-18",
    "start_time": "10:00",
    "end_time": "11:30",
    "prefecture": "東京都",
    "address": "中央町社会教育館, 日本、〒152-0001 東京都目黒区中央町２丁目４−１８ 中央町さくらプラザ地下1階",
    "latitude": null,
    "longitude": null
  },
  {
    "id": 43,
    "meeting_name": "世田谷例会",
    "next_date": "2026-06-18",
    "start_time": "18:30",
    "end_time": "20:30",
    "prefecture": "東京都",
    "address": "〒157-8501 東京都世田谷区成城６丁目２−１",
    "latitude": 35.6412777,
    "longitude": 139.600756
  },
  {
    "id": 85,
    "meeting_name": "川崎例会",
    "next_date": "2026-06-18",
    "start_time": "19:00",
    "end_time": "20:45",
    "prefecture": "神奈川県",
    "address": "〒212-0023 神奈川県川崎市幸区戸手本町１丁目１１−２",
    "latitude": 35.5443883,
    "longitude": 139.6875789
  },
  {
    "id": 241,
    "meeting_name": "立川第二例会",
    "next_date": "2026-06-18",
    "start_time": "19:00",
    "end_time": "21:00",
    "prefecture": "東京都",
    "address": "〒190-0023 東京都立川市柴崎町２丁目１５−８",
    "latitude": 35.694704,
    "longitude": 139.4080884
  }
]