[
  {
    "id": 65,
    "meeting_name": "こころの広場",
    "next_date": "2026-06-18",
    "start_time": "13:00",
    "end_time": "15:00",
    "recurrence": "毎週木曜",
    "address": "〒338-0002 埼玉県さいたま市中央区下落合１７１２ 103 スカイレジデンシャルタワーズ ノースウィング301・401",
    "prefecture": "埼玉県",
    "latitude": 35.8847567,
    "longitude": 139.6367987
  },
  {
    "id": 65,
    "meeting_name": "本部例会 こころの広場",
    "next_date": "2026-06-18",
    "start_time": "13:00",
    "end_time": "15:30",
    "recurrence": "毎週木曜",
    "address": "〒338-0002 埼玉県さいたま市中央区下落合１７１２ 103 スカイレジデンシャルタワーズ ノースウィング301・401",
    "prefecture": "埼玉県",
    "latitude": 35.8847567,
    "longitude": 139.6367987
  },
  {
    "id": 10,
    "meeting_name": "世田谷断酒会　五心会",
    "next_date": "2026-06-18",
    "start_time": "18:30",
    "end_time": "20:30",
    "recurrence": "第3・第4木曜",
    "address": "〒154-0004 東京都世田谷区太子堂１丁目１４−２０ 世田谷区立太子堂区民センター",
    "prefecture": "東京都",
    "latitude": 35.6428861,
    "longitude": 139.6736244
  },
  {
    "id": 16,
    "meeting_name": "足立断酒会　第2例会",
    "next_date": "2026-06-18",
    "start_time": "18:30",
    "end_time": "20:30",
    "recurrence": "第3木曜",
    "address": "〒121-0813 東京都足立区竹の塚２丁目２５−１７",
    "prefecture": "東京都",
    "latitude": 35.7925227,
    "longitude": 139.7950596
  },
  {
    "id": 412,
    "meeting_name": "世田谷断酒会　砧懇談会",
    "next_date": "2026-06-18",
    "start_time": "18:30",
    "end_time": "20:30",
    "recurrence": "第2・第3木曜",
    "address": "世田谷区 砧総合支所, 日本、〒157-8501 東京都世田谷区成城６丁目２−１",
    "prefecture": "東京都",
    "latitude": 35.6412777,
    "longitude": 139.600756
  },
  {
    "id": 65,
    "meeting_name": "与野例会",
    "next_date": "2026-06-18",
    "start_time": "19:00",
    "end_time": "21:00",
    "recurrence": "第1・第3木曜",
    "address": "〒338-0002 埼玉県さいたま市中央区下落合１７１２ 103 スカイレジデンシャルタワーズ ノースウィング301・401",
    "prefecture": "埼玉県",
    "latitude": 35.8847567,
    "longitude": 139.6367987
  },
  {
    "id": 152,
    "meeting_name": "蕨中央例会",
    "next_date": "2026-06-18",
    "start_time": "19:00",
    "end_time": "21:00",
    "recurrence": "第3木曜",
    "address": "蕨市中央４－２１－２９",
    "prefecture": "埼玉県",
    "latitude": 35.8258595,
    "longitude": 139.6820328
  },
  {
    "id": 161,
    "meeting_name": "行田例会",
    "next_date": "2026-06-18",
    "start_time": "19:00",
    "end_time": "21:00",
    "recurrence": "第3木曜",
    "address": "行田市長野1-4-8",
    "prefecture": "埼玉県",
    "latitude": 36.1430166,
    "longitude": 139.4688292
  },
  {
    "id": 241,
    "meeting_name": "立川第2例会",
    "next_date": "2026-06-18",
    "start_time": "19:00",
    "end_time": "21:00",
    "recurrence": "第3木曜",
    "address": "〒190-0023 東京都立川市柴崎町２丁目１５−８",
    "prefecture": "東京都",
    "latitude": 35.694704,
    "longitude": 139.4080884
  },
  {
    "id": 404,
    "meeting_name": "目黒断酒会　例会",
    "next_date": "2026-06-18",
    "start_time": "19:00",
    "end_time": "20:30",
    "recurrence": "第3木曜",
    "address": "中央町社会教育館, 日本、〒152-0001 東京都目黒区中央町２丁目４−１８ 中央町さくらプラザ地下1階",
    "prefecture": "東京都",
    "latitude": 35.6322333,
    "longitude": 139.691941
  },
  {
    "id": 434,
    "meeting_name": "宇都宮断酒会 中央支部例会",
    "next_date": "2026-06-18",
    "start_time": "19:00",
    "end_time": "21:00",
    "recurrence": "毎週木曜",
    "address": "栃木県宇都宮市中央1-11-13",
    "prefecture": "栃木県",
    "latitude": 36.5577759,
    "longitude": 139.8839292
  },
  {
    "id": 441,
    "meeting_name": "西部断酒会 鹿沼支部例会",
    "next_date": "2026-06-18",
    "start_time": "19:00",
    "end_time": "21:00",
    "recurrence": "毎週木曜",
    "address": "栃木県鹿沼市文化橋1982-18",
    "prefecture": "栃木県",
    "latitude": 36.5697049,
    "longitude": 139.7515117
  },
  {
    "id": 88,
    "meeting_name": "幸市民館例会　幸市民館　第３会議室",
    "next_date": "2026-06-18",
    "start_time": "19:00",
    "end_time": "20:45",
    "recurrence": "第3木曜",
    "address": "〒214-0014 神奈川県川崎市多摩区登戸１７７５−１",
    "prefecture": "神奈川県",
    "latitude": 35.6194623,
    "longitude": 139.562151
  },
  {
    "id": 88,
    "meeting_name": "幸市民館例会",
    "next_date": "2026-06-18",
    "start_time": "19:00",
    "end_time": "20:45",
    "recurrence": "第3木曜",
    "address": "〒214-0014 神奈川県川崎市多摩区登戸１７７５−１",
    "prefecture": "神奈川県",
    "latitude": 35.6194623,
    "longitude": 139.562151
  },
  {
    "id": 71,
    "meeting_name": "横浜酒害相談：１２階セルフヘルプ第２相談室",
    "next_date": "2026-06-19",
    "start_time": "13:00",
    "end_time": "15:00",
    "recurrence": "第2・第3・第4金曜",
    "address": "〒221-0835 神奈川県横浜市神奈川区鶴屋町２丁目２４−２",
    "prefecture": "神奈川県",
    "latitude": 35.4684095,
    "longitude": 139.6207449
  },
  {
    "id": 260,
    "meeting_name": "千葉例会",
    "next_date": "2026-06-19",
    "start_time": "18:30",
    "end_time": "20:30",
    "recurrence": "第3・第4金曜",
    "address": "〒263-0034 千葉県千葉市稲毛区稲毛１丁目１０−１７",
    "prefecture": "千葉県",
    "latitude": 35.6365597,
    "longitude": 140.0834126
  },
  {
    "id": 10,
    "meeting_name": "江東断酒会　B懇談会",
    "next_date": "2026-06-19",
    "start_time": "18:30",
    "end_time": "20:30",
    "recurrence": "第3金曜",
    "address": "〒154-0004 東京都世田谷区太子堂１丁目１４−２０ 世田谷区立太子堂区民センター",
    "prefecture": "東京都",
    "latitude": 35.6428861,
    "longitude": 139.6736244
  },
  {
    "id": 10,
    "meeting_name": "江東断酒会　懇談会",
    "next_date": "2026-06-19",
    "start_time": "18:30",
    "end_time": "20:30",
    "recurrence": "第3金曜",
    "address": "〒154-0004 東京都世田谷区太子堂１丁目１４−２０ 世田谷区立太子堂区民センター",
    "prefecture": "東京都",
    "latitude": 35.6428861,
    "longitude": 139.6736244
  },
  {
    "id": 410,
    "meeting_name": "大田断酒会　第2例会",
    "next_date": "2026-06-19",
    "start_time": "18:30",
    "end_time": "20:30",
    "recurrence": "第3金曜",
    "address": "カムカム新蒲田, 日本、〒144-0054 東京都大田区新蒲田１丁目１８−１６",
    "prefecture": "東京都",
    "latitude": 35.5574732,
    "longitude": 139.7113395
  },
  {
    "id": 130,
    "meeting_name": "春日部例会",
    "next_date": "2026-06-19",
    "start_time": "19:00",
    "end_time": "20:45",
    "recurrence": "第3金曜",
    "address": "春日部市南1-12-23",
    "prefecture": "埼玉県",
    "latitude": 35.9756235,
    "longitude": 139.7588851
  },
  {
    "id": 158,
    "meeting_name": "桶川例会",
    "next_date": "2026-06-19",
    "start_time": "19:00",
    "end_time": "21:00",
    "recurrence": "第1・第3金曜",
    "address": "桶川市西1-5-21",
    "prefecture": "埼玉県",
    "latitude": 36.0026223,
    "longitude": 139.5616561
  },
  {
    "id": 364,
    "meeting_name": "荒川断酒会　家族会",
    "next_date": "2026-06-19",
    "start_time": "19:00",
    "end_time": "20:30",
    "recurrence": "第3金曜",
    "address": "〒116-0014 東京都荒川区東日暮里１丁目１７−",
    "prefecture": "東京都",
    "latitude": 35.7300027,
    "longitude": 139.7896524
  },
  {
    "id": 437,
    "meeting_name": "北部断酒会 那須塩原支部例会",
    "next_date": "2026-06-19",
    "start_time": "19:00",
    "end_time": "21:00",
    "recurrence": "毎週金曜",
    "address": "栃木県那須塩原市太夫塚1-194-78",
    "prefecture": "栃木県",
    "latitude": 36.8847532,
    "longitude": 139.9767548
  },
  {
    "id": 80,
    "meeting_name": "南部久里浜例会",
    "next_date": "2026-06-19",
    "start_time": "19:00",
    "end_time": "20:15",
    "recurrence": "第3金曜",
    "address": "〒244-0003 神奈川県横浜市戸塚区戸塚町１２７ 横浜市戸塚センター",
    "prefecture": "神奈川県",
    "latitude": 35.3979389,
    "longitude": 139.5326778
  },
  {
    "id": 80,
    "meeting_name": "鎌倉例会",
    "next_date": "2026-06-19",
    "start_time": "19:00",
    "end_time": "20:30",
    "recurrence": "第3・第5金曜",
    "address": "〒244-0003 神奈川県横浜市戸塚区戸塚町１２７ 横浜市戸塚センター",
    "prefecture": "神奈川県",
    "latitude": 35.3979389,
    "longitude": 139.5326778
  },
  {
    "id": 129,
    "meeting_name": "加須例会",
    "next_date": "2026-06-20",
    "start_time": "10:00",
    "end_time": "12:00",
    "recurrence": "第1・第3土曜",
    "address": "加須市中央2-4-17",
    "prefecture": "埼玉県",
    "latitude": 36.1234174,
    "longitude": 139.59864
  },
  {
    "id": 169,
    "meeting_name": "皆野病院院内",
    "next_date": "2026-06-20",
    "start_time": "13:00",
    "end_time": "15:00",
    "recurrence": "第3土曜",
    "address": "皆野町皆野2031-1",
    "prefecture": "埼玉県",
    "latitude": 36.0770979,
    "longitude": 139.1012093
  },
  {
    "id": 80,
    "meeting_name": "伊勢原例会",
    "next_date": "2026-06-20",
    "start_time": "13:30",
    "end_time": "15:30",
    "recurrence": "第3土曜",
    "address": "〒244-0003 神奈川県横浜市戸塚区戸塚町１２７ 横浜市戸塚センター",
    "prefecture": "神奈川県",
    "latitude": 35.3979389,
    "longitude": 139.5326778
  },
  {
    "id": 80,
    "meeting_name": "未定)伊勢原例会",
    "next_date": "2026-06-20",
    "start_time": "13:30",
    "end_time": "15:30",
    "recurrence": "第3土曜",
    "address": "〒244-0003 神奈川県横浜市戸塚区戸塚町１２７ 横浜市戸塚センター",
    "prefecture": "神奈川県",
    "latitude": 35.3979389,
    "longitude": 139.5326778
  },
  {
    "id": 259,
    "meeting_name": "野田例会",
    "next_date": "2026-06-20",
    "start_time": "18:30",
    "end_time": "20:30",
    "recurrence": "第3・第4土曜",
    "address": "〒278-0003 千葉県野田市鶴奉5ー1",
    "prefecture": "千葉県",
    "latitude": 35.9566619,
    "longitude": 139.8731574
  },
  {
    "id": 283,
    "meeting_name": "江戸川断酒会　第2例会",
    "next_date": "2026-06-20",
    "start_time": "18:30",
    "end_time": "20:30",
    "recurrence": "第3土曜",
    "address": "〒134-0091 東京都江戸川区船堀４丁目１−１",
    "prefecture": "東京都",
    "latitude": 35.6842543,
    "longitude": 139.8648859
  },
  {
    "id": 422,
    "meeting_name": "練馬断酒会　第2例会",
    "next_date": "2026-06-20",
    "start_time": "18:30",
    "end_time": "20:30",
    "recurrence": "第3土曜",
    "address": "北町地域集会所, 日本、〒179-0081 東京都練馬区北町８丁目２８−１０ 練馬区立北町地域集会所",
    "prefecture": "東京都",
    "latitude": 35.7677151,
    "longitude": 139.6496689
  },
  {
    "id": 80,
    "meeting_name": "例会",
    "next_date": "2026-06-20",
    "start_time": "18:45",
    "end_time": "20:30",
    "recurrence": "第1・第3・第4土曜",
    "address": "〒244-0003 神奈川県横浜市戸塚区戸塚町１２７ 横浜市戸塚センター",
    "prefecture": "神奈川県",
    "latitude": 35.3979389,
    "longitude": 139.5326778
  },
  {
    "id": 151,
    "meeting_name": "本部例会",
    "next_date": "2026-06-20",
    "start_time": "19:00",
    "end_time": "21:00",
    "recurrence": "第3土曜",
    "address": "川口市幸町３－８－３３",
    "prefecture": "埼玉県",
    "latitude": 35.8054912,
    "longitude": 139.7178743
  },
  {
    "id": 166,
    "meeting_name": "本庄例会",
    "next_date": "2026-06-20",
    "start_time": "19:00",
    "end_time": "21:00",
    "recurrence": "第1・第3土曜",
    "address": "本庄市銀座1-1-1",
    "prefecture": "埼玉県",
    "latitude": 36.238615,
    "longitude": 139.1848107
  },
  {
    "id": 435,
    "meeting_name": "宇都宮断酒会 姿川支部例会",
    "next_date": "2026-06-20",
    "start_time": "19:00",
    "end_time": "21:00",
    "recurrence": "毎週土曜",
    "address": "栃木県宇都宮市西川田町805-1",
    "prefecture": "栃木県",
    "latitude": 36.529596,
    "longitude": 139.8490398
  },
  {
    "id": 439,
    "meeting_name": "北部断酒会 氏家支部例会",
    "next_date": "2026-06-20",
    "start_time": "19:00",
    "end_time": "21:00",
    "recurrence": "毎週土曜",
    "address": "栃木県宇都宮市中里町181-3",
    "prefecture": "栃木県",
    "latitude": 36.6830428,
    "longitude": 139.9011579
  },
  {
    "id": 440,
    "meeting_name": "北部断酒会 烏山支部例会",
    "next_date": "2026-06-20",
    "start_time": "19:00",
    "end_time": "21:00",
    "recurrence": "毎週土曜",
    "address": "栃木県那須烏山市野上703",
    "prefecture": "栃木県",
    "latitude": 36.6349305,
    "longitude": 140.1508523
  },
  {
    "id": 442,
    "meeting_name": "南部断酒会 真岡支部例会",
    "next_date": "2026-06-20",
    "start_time": "19:00",
    "end_time": "21:00",
    "recurrence": "毎週土曜",
    "address": "栃木県真岡市荒町1201",
    "prefecture": "栃木県",
    "latitude": 36.4392761,
    "longitude": 140.0166399
  },
  {
    "id": 88,
    "meeting_name": "高津市民館例会",
    "next_date": "2026-06-20",
    "start_time": "19:00",
    "end_time": "20:45",
    "recurrence": "第3土曜",
    "address": "〒214-0014 神奈川県川崎市多摩区登戸１７７５−１",
    "prefecture": "神奈川県",
    "latitude": 35.6194623,
    "longitude": 139.562151
  },
  {
    "id": 257,
    "meeting_name": "市原例会",
    "next_date": "2026-06-21",
    "start_time": "09:50",
    "end_time": "11:50",
    "recurrence": "第1・第3日曜",
    "address": "〒290-0062 千葉県市原市八幡１０５０−３",
    "prefecture": "千葉県",
    "latitude": 35.5373022,
    "longitude": 140.1154897
  },
  {
    "id": 247,
    "meeting_name": "福生市民公開セミナー",
    "next_date": "2026-06-21",
    "start_time": "13:00",
    "end_time": "15:00",
    "recurrence": "第3・第4日曜",
    "address": "〒190-0013 東京都立川市富士見町２丁目３６−４７",
    "prefecture": "東京都",
    "latitude": 35.7012732,
    "longitude": 139.4019165
  },
  {
    "id": 258,
    "meeting_name": "鎌ケ谷例会",
    "next_date": "2026-06-21",
    "start_time": "13:30",
    "end_time": "20:30",
    "recurrence": "第3日曜",
    "address": "〒273-0107 千葉県鎌ケ谷市新鎌ケ谷２丁目６−１",
    "prefecture": "千葉県",
    "latitude": 35.7768081,
    "longitude": 140.00084
  },
  {
    "id": 147,
    "meeting_name": "あおぞら例会",
    "next_date": "2026-06-21",
    "start_time": "13:30",
    "end_time": "15:30",
    "recurrence": "第1・第3・第5日曜",
    "address": "さいたま市浦和区常盤9丁目30",
    "prefecture": "埼玉県",
    "latitude": 35.8710585,
    "longitude": 139.6425388
  },
  {
    "id": 520,
    "meeting_name": "あおぞら例会",
    "next_date": "2026-06-21",
    "start_time": "13:30",
    "end_time": "15:30",
    "recurrence": "第1・第3・第5日曜",
    "address": "埼玉県さいたま市浦和区常盤９丁目３０",
    "prefecture": "埼玉県",
    "latitude": 35.870230352931166,
    "longitude": 139.6435416423446
  },
  {
    "id": 15,
    "meeting_name": "西武断酒会　若葉会",
    "next_date": "2026-06-21",
    "start_time": "14:00",
    "end_time": "16:00",
    "recurrence": "第3日曜",
    "address": "〒180-0013 東京都武蔵野市西久保１丁目２３−７ 西久保コミュニティセンター",
    "prefecture": "東京都",
    "latitude": 35.706036,
    "longitude": 139.5568566
  },
  {
    "id": 241,
    "meeting_name": "立川家族会",
    "next_date": "2026-06-21",
    "start_time": "14:00",
    "end_time": "16:00",
    "recurrence": "第3日曜",
    "address": "〒190-0023 東京都立川市柴崎町２丁目１５−８",
    "prefecture": "東京都",
    "latitude": 35.694704,
    "longitude": 139.4080884
  },
  {
    "id": 241,
    "meeting_name": "立川本部例会",
    "next_date": "2026-06-21",
    "start_time": "14:00",
    "end_time": "16:00",
    "recurrence": "第3日曜",
    "address": "〒190-0023 東京都立川市柴崎町２丁目１５−８",
    "prefecture": "東京都",
    "latitude": 35.694704,
    "longitude": 139.4080884
  },
  {
    "id": 405,
    "meeting_name": "京王家族会",
    "next_date": "2026-06-21",
    "start_time": "15:00",
    "end_time": "17:30",
    "recurrence": "第3日曜",
    "address": "京王断酒会（ＮＰＯ法人）, 日本、〒182-0024 東京都調布市布田１丁目２９−４",
    "prefecture": "東京都",
    "latitude": 35.6533767,
    "longitude": 139.5453749
  },
  {
    "id": 102,
    "meeting_name": "オンライン例会 Zoom",
    "next_date": "2026-06-21",
    "start_time": "18:00",
    "end_time": "20:00",
    "recurrence": "第3日曜",
    "address": "",
    "prefecture": "神奈川県",
    "latitude": 35.4913535,
    "longitude": 139.284143
  },
  {
    "id": 405,
    "meeting_name": "ザ・体験談",
    "next_date": "2026-06-22",
    "start_time": "13:00",
    "end_time": "16:00",
    "recurrence": "第2・第4月曜",
    "address": "京王断酒会（ＮＰＯ法人）, 日本、〒182-0024 東京都調布市布田１丁目２９−４",
    "prefecture": "東京都",
    "latitude": 35.6533767,
    "longitude": 139.5453749
  },
  {
    "id": 2,
    "meeting_name": "品川断酒会　家族会",
    "next_date": "2026-06-22",
    "start_time": "18:30",
    "end_time": "20:30",
    "recurrence": "第3・第4月曜",
    "address": "〒142-0043 東京都品川区二葉１丁目１−１−２",
    "prefecture": "東京都",
    "latitude": 35.6082279,
    "longitude": 139.7259931
  },
  {
    "id": 160,
    "meeting_name": "鴻巣例会",
    "next_date": "2026-06-22",
    "start_time": "19:00",
    "end_time": "21:00",
    "recurrence": "第4月曜",
    "address": "鴻巣市赤見台1-15-5",
    "prefecture": "埼玉県",
    "latitude": 36.0863971,
    "longitude": 139.4787065
  },
  {
    "id": 9,
    "meeting_name": "杉並断酒会　懇談会",
    "next_date": "2026-06-22",
    "start_time": "19:00",
    "end_time": "20:30",
    "recurrence": "第1・第2・第4月曜",
    "address": "〒156-0052 東京都世田谷区経堂３丁目３７−１３",
    "prefecture": "東京都",
    "latitude": 35.651765,
    "longitude": 139.632168
  },
  {
    "id": 80,
    "meeting_name": "宮前例会　宮前区保健福祉センター１階　健診ホール",
    "next_date": "2026-06-22",
    "start_time": "19:00",
    "end_time": "20:45",
    "recurrence": "第4月曜",
    "address": "〒244-0003 神奈川県横浜市戸塚区戸塚町１２７ 横浜市戸塚センター",
    "prefecture": "神奈川県",
    "latitude": 35.3979389,
    "longitude": 139.5326778
  },
  {
    "id": 80,
    "meeting_name": "宮前例会",
    "next_date": "2026-06-22",
    "start_time": "19:00",
    "end_time": "20:45",
    "recurrence": "第4月曜",
    "address": "〒244-0003 神奈川県横浜市戸塚区戸塚町１２７ 横浜市戸塚センター",
    "prefecture": "神奈川県",
    "latitude": 35.3979389,
    "longitude": 139.5326778
  },
  {
    "id": 119,
    "meeting_name": "葉山例会",
    "next_date": "2026-06-22",
    "start_time": "19:00",
    "end_time": "20:00",
    "recurrence": "第1・第4月曜",
    "address": "〒240-0112 神奈川県三浦郡葉山町堀内２２２０ 葉山町福祉文化会館",
    "prefecture": "神奈川県",
    "latitude": 35.273019,
    "longitude": 139.587036
  },
  {
    "id": 6,
    "meeting_name": "ハートボックス",
    "next_date": "2026-06-23",
    "start_time": "13:30",
    "end_time": "15:30",
    "recurrence": "毎週火曜",
    "address": "〒108-0014 東京都港区芝５丁目１８−２ 都営芝五丁目アパート2号棟",
    "prefecture": "東京都",
    "latitude": 35.6482637,
    "longitude": 139.7483749
  },
  {
    "id": 132,
    "meeting_name": "越谷例会",
    "next_date": "2026-06-23",
    "start_time": "18:30",
    "end_time": "20:30",
    "recurrence": "第2・第4火曜",
    "address": "越谷市越ヶ谷4-1-1",
    "prefecture": "埼玉県",
    "latitude": 35.8897351,
    "longitude": 139.7915
  },
  {
    "id": 10,
    "meeting_name": "江東断酒会　第2例会",
    "next_date": "2026-06-23",
    "start_time": "18:30",
    "end_time": "20:45",
    "recurrence": "第3・第4火曜",
    "address": "〒154-0004 東京都世田谷区太子堂１丁目１４−２０ 世田谷区立太子堂区民センター",
    "prefecture": "東京都",
    "latitude": 35.6428861,
    "longitude": 139.6736244
  },
  {
    "id": 80,
    "meeting_name": "平塚例会",
    "next_date": "2026-06-23",
    "start_time": "18:45",
    "end_time": "20:30",
    "recurrence": "第2・第3・第4火曜",
    "address": "〒244-0003 神奈川県横浜市戸塚区戸塚町１２７ 横浜市戸塚センター",
    "prefecture": "神奈川県",
    "latitude": 35.3979389,
    "longitude": 139.5326778
  },
  {
    "id": 157,
    "meeting_name": "合同例会",
    "next_date": "2026-06-23",
    "start_time": "19:00",
    "end_time": "21:00",
    "recurrence": "第4火曜",
    "address": "川口市並木2-8-2",
    "prefecture": "埼玉県",
    "latitude": 35.8168722,
    "longitude": 139.7089682
  },
  {
    "id": 157,
    "meeting_name": "合同例会/家族会",
    "next_date": "2026-06-23",
    "start_time": "19:00",
    "end_time": "21:00",
    "recurrence": "第4火曜",
    "address": "川口市並木2-8-2",
    "prefecture": "埼玉県",
    "latitude": 35.8168722,
    "longitude": 139.7089682
  },
  {
    "id": 165,
    "meeting_name": "深谷例会",
    "next_date": "2026-06-23",
    "start_time": "19:00",
    "end_time": "21:00",
    "recurrence": "第2・第4火曜",
    "address": "深谷市仲町20-2",
    "prefecture": "埼玉県",
    "latitude": 36.2006332,
    "longitude": 139.2842876
  },
  {
    "id": 88,
    "meeting_name": "例会",
    "next_date": "2026-06-23",
    "start_time": "19:00",
    "end_time": "20:30",
    "recurrence": "毎週火曜",
    "address": "〒214-0014 神奈川県川崎市多摩区登戸１７７５−１",
    "prefecture": "神奈川県",
    "latitude": 35.6194623,
    "longitude": 139.562151
  },
  {
    "id": 247,
    "meeting_name": "立川酒害相談",
    "next_date": "2026-06-24",
    "start_time": "13:00",
    "end_time": "16:00",
    "recurrence": "第2・第4水曜",
    "address": "〒190-0013 東京都立川市富士見町２丁目３６−４７",
    "prefecture": "東京都",
    "latitude": 35.7012732,
    "longitude": 139.4019165
  },
  {
    "id": 71,
    "meeting_name": "昼例会",
    "next_date": "2026-06-24",
    "start_time": "13:00",
    "end_time": "14:30",
    "recurrence": "毎週水曜",
    "address": "〒221-0835 神奈川県横浜市神奈川区鶴屋町２丁目２４−２",
    "prefecture": "神奈川県",
    "latitude": 35.4684095,
    "longitude": 139.6207449
  },
  {
    "id": 71,
    "meeting_name": "昼例会　担当　川崎",
    "next_date": "2026-06-24",
    "start_time": "13:00",
    "end_time": "14:30",
    "recurrence": "第4水曜",
    "address": "〒221-0835 神奈川県横浜市神奈川区鶴屋町２丁目２４−２",
    "prefecture": "神奈川県",
    "latitude": 35.4684095,
    "longitude": 139.6207449
  },
  {
    "id": 10,
    "meeting_name": "アメシスト　第2例会",
    "next_date": "2026-06-24",
    "start_time": "13:30",
    "end_time": "15:00",
    "recurrence": "第4水曜",
    "address": "〒154-0004 東京都世田谷区太子堂１丁目１４−２０ 世田谷区立太子堂区民センター",
    "prefecture": "東京都",
    "latitude": 35.6428861,
    "longitude": 139.6736244
  },
  {
    "id": 34,
    "meeting_name": "シングルの集い　2",
    "next_date": "2026-06-24",
    "start_time": "18:30",
    "end_time": "20:30",
    "recurrence": "第2・第4水曜",
    "address": "〒103-0001 東京都中央区日本橋小伝馬町５−１",
    "prefecture": "東京都",
    "latitude": 35.6909163,
    "longitude": 139.7770622
  },
  {
    "id": 34,
    "meeting_name": "指針と規範勉強会",
    "next_date": "2026-06-24",
    "start_time": "18:30",
    "end_time": "20:30",
    "recurrence": "第3・第4水曜",
    "address": "〒103-0001 東京都中央区日本橋小伝馬町５−１",
    "prefecture": "東京都",
    "latitude": 35.6909163,
    "longitude": 139.7770622
  },
  {
    "id": 411,
    "meeting_name": "京王断酒会　調布第4懇談会",
    "next_date": "2026-06-24",
    "start_time": "18:30",
    "end_time": "20:30",
    "recurrence": "第4水曜",
    "address": "",
    "prefecture": "東京都",
    "latitude": 35.6764225,
    "longitude": 139.650027
  },
  {
    "id": 65,
    "meeting_name": "合同例会",
    "next_date": "2026-06-24",
    "start_time": "19:00",
    "end_time": "20:30",
    "recurrence": "第4水曜",
    "address": "〒338-0002 埼玉県さいたま市中央区下落合１７１２ 103 スカイレジデンシャルタワーズ ノースウィング301・401",
    "prefecture": "埼玉県",
    "latitude": 35.8847567,
    "longitude": 139.6367987
  },
  {
    "id": 69,
    "meeting_name": "合同例会・家族会",
    "next_date": "2026-06-24",
    "start_time": "19:00",
    "end_time": "21:00",
    "recurrence": "第4水曜",
    "address": "〒330-0063 埼玉県さいたま市東浦和区高砂１１−１",
    "prefecture": "埼玉県",
    "latitude": 35.8574923,
    "longitude": 139.6496729
  },
  {
    "id": 69,
    "meeting_name": "アメシスト例会",
    "next_date": "2026-06-24",
    "start_time": "19:00",
    "end_time": "21:00",
    "recurrence": "第4水曜",
    "address": "〒330-0063 埼玉県さいたま市東浦和区高砂１１−１",
    "prefecture": "埼玉県",
    "latitude": 35.8574923,
    "longitude": 139.6496729
  },
  {
    "id": 69,
    "meeting_name": "アメシスト例会",
    "next_date": "2026-06-24",
    "start_time": "19:00",
    "end_time": "20:30",
    "recurrence": "第4水曜",
    "address": "〒330-0063 埼玉県さいたま市東浦和区高砂１１−１",
    "prefecture": "埼玉県",
    "latitude": 35.8574923,
    "longitude": 139.6496729
  },
  {
    "id": 69,
    "meeting_name": "家族例会",
    "next_date": "2026-06-24",
    "start_time": "19:00",
    "end_time": "20:30",
    "recurrence": "第4水曜",
    "address": "〒330-0063 埼玉県さいたま市東浦和区高砂１１−１",
    "prefecture": "埼玉県",
    "latitude": 35.8574923,
    "longitude": 139.6496729
  },
  {
    "id": 69,
    "meeting_name": "合同例会",
    "next_date": "2026-06-24",
    "start_time": "19:00",
    "end_time": "20:30",
    "recurrence": "第4水曜",
    "address": "〒330-0063 埼玉県さいたま市東浦和区高砂１１−１",
    "prefecture": "埼玉県",
    "latitude": 35.8574923,
    "longitude": 139.6496729
  },
  {
    "id": 162,
    "meeting_name": "熊谷例会",
    "next_date": "2026-06-24",
    "start_time": "19:00",
    "end_time": "21:00",
    "recurrence": "第1・第2・第4水曜",
    "address": "〒360-0047 埼玉県熊谷市仲町19",
    "prefecture": "埼玉県",
    "latitude": 36.1475166,
    "longitude": 139.3829333
  },
  {
    "id": 436,
    "meeting_name": "北部断酒会 大田原支部例会",
    "next_date": "2026-06-24",
    "start_time": "19:00",
    "end_time": "21:00",
    "recurrence": "毎週水曜",
    "address": "栃木県大田原市本町1-3",
    "prefecture": "栃木県",
    "latitude": 36.8711603,
    "longitude": 140.0171612
  },
  {
    "id": 438,
    "meeting_name": "北部断酒会 矢板支部例会",
    "next_date": "2026-06-24",
    "start_time": "19:00",
    "end_time": "21:00",
    "recurrence": "毎週水曜",
    "address": "栃木県矢板市本町5-4",
    "prefecture": "栃木県",
    "latitude": 36.8056007,
    "longitude": 139.9224503
  },
  {
    "id": 80,
    "meeting_name": "例会",
    "next_date": "2026-06-24",
    "start_time": "19:00",
    "end_time": "21:00",
    "recurrence": "第2・第4水曜",
    "address": "〒244-0003 神奈川県横浜市戸塚区戸塚町１２７ 横浜市戸塚センター",
    "prefecture": "神奈川県",
    "latitude": 35.3979389,
    "longitude": 139.5326778
  },
  {
    "id": 44,
    "meeting_name": "MM豊洲",
    "next_date": "2026-06-24",
    "start_time": "19:30",
    "end_time": "21:30",
    "recurrence": "第3・第4水曜",
    "address": "〒135-0061 東京都江東区豊洲２丁目２−１８",
    "prefecture": "東京都",
    "latitude": 35.6542788,
    "longitude": 139.7952583
  },
  {
    "id": 256,
    "meeting_name": "船橋例会",
    "next_date": "2026-06-25",
    "start_time": "18:30",
    "end_time": "20:30",
    "recurrence": "第1・第4木曜",
    "address": "〒274-0825 千葉県船橋市前原西２丁目２１−２１",
    "prefecture": "千葉県",
    "latitude": 35.6927812,
    "longitude": 140.0227357
  },
  {
    "id": 6,
    "meeting_name": "港断酒会　懇談会",
    "next_date": "2026-06-25",
    "start_time": "18:30",
    "end_time": "20:00",
    "recurrence": "第4木曜",
    "address": "〒108-0014 東京都港区芝５丁目１８−２ 都営芝五丁目アパート2号棟",
    "prefecture": "東京都",
    "latitude": 35.6482637,
    "longitude": 139.7483749
  },
  {
    "id": 9,
    "meeting_name": "墨田断酒会　第2例会",
    "next_date": "2026-06-25",
    "start_time": "18:30",
    "end_time": "20:30",
    "recurrence": "第4木曜",
    "address": "〒156-0052 東京都世田谷区経堂３丁目３７−１３",
    "prefecture": "東京都",
    "latitude": 35.651765,
    "longitude": 139.632168
  },
  {
    "id": 151,
    "meeting_name": "川口例会",
    "next_date": "2026-06-25",
    "start_time": "19:00",
    "end_time": "21:00",
    "recurrence": "第2・第4木曜",
    "address": "川口市幸町３－８－３３",
    "prefecture": "埼玉県",
    "latitude": 35.8054912,
    "longitude": 139.7178743
  },
  {
    "id": 244,
    "meeting_name": "八王子例会",
    "next_date": "2026-06-25",
    "start_time": "19:00",
    "end_time": "21:00",
    "recurrence": "第4・第5木曜",
    "address": "〒192-0082 東京都八王子市東町５−６",
    "prefecture": "東京都",
    "latitude": 35.658532,
    "longitude": 139.3399542
  },
  {
    "id": 9,
    "meeting_name": "福生例会",
    "next_date": "2026-06-26",
    "start_time": "14:00",
    "end_time": "16:00",
    "recurrence": "第4金曜",
    "address": "〒156-0052 東京都世田谷区経堂３丁目３７−１３",
    "prefecture": "東京都",
    "latitude": 35.651765,
    "longitude": 139.632168
  },
  {
    "id": 252,
    "meeting_name": "福生例会",
    "next_date": "2026-06-26",
    "start_time": "14:00",
    "end_time": "16:00",
    "recurrence": "第4金曜",
    "address": "〒197-0011 東京都福生市福生２４５５",
    "prefecture": "東京都",
    "latitude": 35.7339173,
    "longitude": 139.3378396
  },
  {
    "id": 69,
    "meeting_name": "シングル例会",
    "next_date": "2026-06-26",
    "start_time": "19:00",
    "end_time": "21:00",
    "recurrence": "第4金曜",
    "address": "〒330-0063 埼玉県さいたま市東浦和区高砂１１−１",
    "prefecture": "埼玉県",
    "latitude": 35.8574923,
    "longitude": 139.6496729
  },
  {
    "id": 134,
    "meeting_name": "シングル例会",
    "next_date": "2026-06-26",
    "start_time": "19:00",
    "end_time": "21:00",
    "recurrence": "第4金曜",
    "address": "さいたま市南区別所7-20-1 サウスピア8F",
    "prefecture": "埼玉県",
    "latitude": 35.8452444,
    "longitude": 139.6454735
  },
  {
    "id": 9,
    "meeting_name": "連合合同例会",
    "next_date": "2026-06-26",
    "start_time": "19:00",
    "end_time": "21:00",
    "recurrence": "第4・第5金曜",
    "address": "〒156-0052 東京都世田谷区経堂３丁目３７−１３",
    "prefecture": "東京都",
    "latitude": 35.651765,
    "longitude": 139.632168
  },
  {
    "id": 88,
    "meeting_name": "多摩市民館例会　多摩市民館　第５会議室",
    "next_date": "2026-06-26",
    "start_time": "19:00",
    "end_time": "20:45",
    "recurrence": "第4金曜",
    "address": "〒214-0014 神奈川県川崎市多摩区登戸１７７５−１",
    "prefecture": "神奈川県",
    "latitude": 35.6194623,
    "longitude": 139.562151
  },
  {
    "id": 88,
    "meeting_name": "多摩市民館例会",
    "next_date": "2026-06-26",
    "start_time": "19:00",
    "end_time": "20:45",
    "recurrence": "第4金曜",
    "address": "〒214-0014 神奈川県川崎市多摩区登戸１７７５−１",
    "prefecture": "神奈川県",
    "latitude": 35.6194623,
    "longitude": 139.562151
  },
  {
    "id": 110,
    "meeting_name": "本部例会",
    "next_date": "2026-06-26",
    "start_time": "19:00",
    "end_time": "20:15",
    "recurrence": "第2・第4金曜",
    "address": "〒238-0046 神奈川県横須賀市西逸見町１丁目１−３８−１１",
    "prefecture": "神奈川県",
    "latitude": 35.2842547,
    "longitude": 139.6521476
  },
  {
    "id": 400,
    "meeting_name": "みくるべ病院院内例会",
    "next_date": "2026-06-27",
    "start_time": "10:10",
    "end_time": "11:10",
    "recurrence": "第4土曜",
    "address": "神奈川県秦野市三廻部1678",
    "prefecture": "神奈川県",
    "latitude": 35.4048412456351,
    "longitude": 139.1569433762054
  },
  {
    "id": 400,
    "meeting_name": "みくるべ病院院内例会",
    "next_date": "2026-06-27",
    "start_time": "10:15",
    "end_time": "11:15",
    "recurrence": "第4土曜",
    "address": "神奈川県秦野市三廻部1678",
    "prefecture": "神奈川県",
    "latitude": 35.4048412456351,
    "longitude": 139.1569433762054
  },
  {
    "id": 400,
    "meeting_name": "みくるべ病院院内例会",
    "next_date": "2026-06-27",
    "start_time": "10:15",
    "end_time": "11:15",
    "recurrence": "第4土曜",
    "address": "神奈川県秦野市三廻部1678",
    "prefecture": "神奈川県",
    "latitude": 35.4048412456351,
    "longitude": 139.1569433762054
  },
  {
    "id": 140,
    "meeting_name": "西部昼例会",
    "next_date": "2026-06-27",
    "start_time": "13:00",
    "end_time": "15:00",
    "recurrence": "第4土曜",
    "address": "ふじみ野市福岡1-2-5",
    "prefecture": "埼玉県",
    "latitude": 35.8780612,
    "longitude": 139.5218928
  },
  {
    "id": 71,
    "meeting_name": "アメシスト例会",
    "next_date": "2026-06-27",
    "start_time": "13:00",
    "end_time": "15:00",
    "recurrence": "第4・第5土曜",
    "address": "〒221-0835 神奈川県横浜市神奈川区鶴屋町２丁目２４−２",
    "prefecture": "神奈川県",
    "latitude": 35.4684095,
    "longitude": 139.6207449
  },
  {
    "id": 417,
    "meeting_name": "台東断酒会　例会",
    "next_date": "2026-06-27",
    "start_time": "18:30",
    "end_time": "20:30",
    "recurrence": "第4土曜",
    "address": "根岸社会教育館, 日本、〒110-0003 東京都台東区根岸５丁目１８−１３",
    "prefecture": "東京都",
    "latitude": 35.7290503,
    "longitude": 139.7904743
  },
  {
    "id": 142,
    "meeting_name": "和光断酒のつどい",
    "next_date": "2026-06-27",
    "start_time": "19:00",
    "end_time": "21:00",
    "recurrence": "第4土曜",
    "address": "和光市白子3-8-21",
    "prefecture": "埼玉県",
    "latitude": 35.78893619999999,
    "longitude": 139.6282305
  },
  {
    "id": 145,
    "meeting_name": "大宮例会（第4土曜）",
    "next_date": "2026-06-27",
    "start_time": "19:00",
    "end_time": "21:00",
    "recurrence": "第4土曜",
    "address": "さいたま市大宮区桜木町1-10-18  ｼｰﾉ大宮ｾﾝﾀｰﾌﾟﾗｻﾞ8F",
    "prefecture": "埼玉県",
    "latitude": 35.9043394,
    "longitude": 139.6205317
  },
  {
    "id": 156,
    "meeting_name": "戸田例会",
    "next_date": "2026-06-27",
    "start_time": "19:00",
    "end_time": "21:00",
    "recurrence": "第2・第4土曜",
    "address": "戸田市上戸田２－２１－１",
    "prefecture": "埼玉県",
    "latitude": 35.8125457,
    "longitude": 139.6808877
  },
  {
    "id": 88,
    "meeting_name": "中原市民館例会　中原市民館　第４会議室",
    "next_date": "2026-06-27",
    "start_time": "19:00",
    "end_time": "20:45",
    "recurrence": "第4土曜",
    "address": "〒214-0014 神奈川県川崎市多摩区登戸１７７５−１",
    "prefecture": "神奈川県",
    "latitude": 35.6194623,
    "longitude": 139.562151
  },
  {
    "id": 88,
    "meeting_name": "中原市民館例会",
    "next_date": "2026-06-27",
    "start_time": "19:00",
    "end_time": "20:45",
    "recurrence": "第4土曜",
    "address": "〒214-0014 神奈川県川崎市多摩区登戸１７７５−１",
    "prefecture": "神奈川県",
    "latitude": 35.6194623,
    "longitude": 139.562151
  },
  {
    "id": 405,
    "meeting_name": "京王断酒会　例会",
    "next_date": "2026-06-28",
    "start_time": "13:00",
    "end_time": "15:00",
    "recurrence": "第4・第5日曜",
    "address": "京王断酒会（ＮＰＯ法人）, 日本、〒182-0024 東京都調布市布田１丁目２９−４",
    "prefecture": "東京都",
    "latitude": 35.6533767,
    "longitude": 139.5453749
  },
  {
    "id": 102,
    "meeting_name": "未定)オンライン例会 Zoom",
    "next_date": "2026-06-28",
    "start_time": "18:00",
    "end_time": "20:00",
    "recurrence": "第1・第2・第4日曜",
    "address": "",
    "prefecture": "神奈川県",
    "latitude": 35.4913535,
    "longitude": 139.284143
  },
  {
    "id": 157,
    "meeting_name": "🚩合同例会/家族会",
    "next_date": "2026-06-30",
    "start_time": "19:00",
    "end_time": "21:00",
    "recurrence": "第5火曜",
    "address": "川口市並木2-8-2",
    "prefecture": "埼玉県",
    "latitude": 35.8168722,
    "longitude": 139.7089682
  },
  {
    "id": 151,
    "meeting_name": "南部昼例会",
    "next_date": "2026-07-01",
    "start_time": "13:00",
    "end_time": "15:00",
    "recurrence": "第1水曜",
    "address": "川口市幸町３－８－３３",
    "prefecture": "埼玉県",
    "latitude": 35.8054912,
    "longitude": 139.7178743
  },
  {
    "id": 297,
    "meeting_name": "福生酒害相談",
    "next_date": "2026-07-01",
    "start_time": "13:00",
    "end_time": "16:00",
    "recurrence": "第1・第3水曜",
    "address": "東京都福生市福生１０１４−１０",
    "prefecture": "東京都",
    "latitude": 35.7422623,
    "longitude": 139.3276923
  },
  {
    "id": 71,
    "meeting_name": "神断連昼例会　県民センター7階",
    "next_date": "2026-07-01",
    "start_time": "13:00",
    "end_time": "14:30",
    "recurrence": "第1・第2水曜",
    "address": "〒221-0835 神奈川県横浜市神奈川区鶴屋町２丁目２４−２",
    "prefecture": "神奈川県",
    "latitude": 35.4684095,
    "longitude": 139.6207449
  },
  {
    "id": 71,
    "meeting_name": "神断連昼例会",
    "next_date": "2026-07-01",
    "start_time": "13:00",
    "end_time": "14:30",
    "recurrence": "第1・第2水曜",
    "address": "〒221-0835 神奈川県横浜市神奈川区鶴屋町２丁目２４−２",
    "prefecture": "神奈川県",
    "latitude": 35.4684095,
    "longitude": 139.6207449
  },
  {
    "id": 255,
    "meeting_name": "柏例会",
    "next_date": "2026-07-01",
    "start_time": "18:30",
    "end_time": "20:30",
    "recurrence": "第1・第2・第3水曜",
    "address": "〒277-0004 千葉県柏市柏下６５−１−６５−１",
    "prefecture": "千葉県",
    "latitude": 35.8669173,
    "longitude": 139.9866516
  },
  {
    "id": 10,
    "meeting_name": "北断酒会　第1例会",
    "next_date": "2026-07-01",
    "start_time": "18:30",
    "end_time": "20:30",
    "recurrence": "第1水曜",
    "address": "〒154-0004 東京都世田谷区太子堂１丁目１４−２０ 世田谷区立太子堂区民センター",
    "prefecture": "東京都",
    "latitude": 35.6428861,
    "longitude": 139.6736244
  },
  {
    "id": 10,
    "meeting_name": "江東断酒会　A懇談会",
    "next_date": "2026-07-01",
    "start_time": "18:30",
    "end_time": "20:30",
    "recurrence": "第1水曜",
    "address": "〒154-0004 東京都世田谷区太子堂１丁目１４−２０ 世田谷区立太子堂区民センター",
    "prefecture": "東京都",
    "latitude": 35.6428861,
    "longitude": 139.6736244
  },
  {
    "id": 34,
    "meeting_name": "シングルの集い　1",
    "next_date": "2026-07-01",
    "start_time": "18:30",
    "end_time": "20:30",
    "recurrence": "第1水曜",
    "address": "〒103-0001 東京都中央区日本橋小伝馬町５−１",
    "prefecture": "東京都",
    "latitude": 35.6909163,
    "longitude": 139.7770622
  },
  {
    "id": 36,
    "meeting_name": "葛飾断酒会　第1例会",
    "next_date": "2026-07-01",
    "start_time": "18:30",
    "end_time": "20:30",
    "recurrence": "第1・第2水曜",
    "address": "〒124-0012 東京都葛飾区立石３丁目１２−１",
    "prefecture": "東京都",
    "latitude": 35.7400582,
    "longitude": 139.8436094
  },
  {
    "id": 411,
    "meeting_name": "京王断酒会　調布第1懇談会",
    "next_date": "2026-07-01",
    "start_time": "18:30",
    "end_time": "20:30",
    "recurrence": "第1水曜",
    "address": "",
    "prefecture": "東京都",
    "latitude": 35.6764225,
    "longitude": 139.650027
  },
  {
    "id": 131,
    "meeting_name": "岩槻例会",
    "next_date": "2026-07-01",
    "start_time": "19:00",
    "end_time": "21:00",
    "recurrence": "第1・第3水曜",
    "address": "さいたま市岩槻区本町1-10-7",
    "prefecture": "埼玉県",
    "latitude": 35.9470694,
    "longitude": 139.6917085
  },
  {
    "id": 137,
    "meeting_name": "富士見例会",
    "next_date": "2026-07-01",
    "start_time": "19:00",
    "end_time": "21:00",
    "recurrence": "第1水曜",
    "address": "富士見市針ヶ谷1-38",
    "prefecture": "埼玉県",
    "latitude": 35.8320496,
    "longitude": 139.5539752
  },
  {
    "id": 443,
    "meeting_name": "両毛断酒会 足利支部例会",
    "next_date": "2026-07-01",
    "start_time": "19:00",
    "end_time": "21:00",
    "recurrence": "第1・第3水曜",
    "address": "栃木県足利市本城1-1560",
    "prefecture": "栃木県",
    "latitude": 36.3527186,
    "longitude": 139.4529557
  },
  {
    "id": 80,
    "meeting_name": "合同例会",
    "next_date": "2026-07-01",
    "start_time": "19:00",
    "end_time": "21:00",
    "recurrence": "第1・第3・第5水曜",
    "address": "〒244-0003 神奈川県横浜市戸塚区戸塚町１２７ 横浜市戸塚センター",
    "prefecture": "神奈川県",
    "latitude": 35.3979389,
    "longitude": 139.5326778
  },
  {
    "id": 80,
    "meeting_name": "未定)相談会",
    "next_date": "2026-07-02",
    "start_time": "18:00",
    "end_time": "18:45",
    "recurrence": "第1・第2木曜",
    "address": "〒244-0003 神奈川県横浜市戸塚区戸塚町１２７ 横浜市戸塚センター",
    "prefecture": "神奈川県",
    "latitude": 35.3979389,
    "longitude": 139.5326778
  },
  {
    "id": 9,
    "meeting_name": "中野断酒会　例会",
    "next_date": "2026-07-02",
    "start_time": "18:30",
    "end_time": "20:30",
    "recurrence": "第1・第2木曜",
    "address": "〒156-0052 東京都世田谷区経堂３丁目３７−１３",
    "prefecture": "東京都",
    "latitude": 35.651765,
    "longitude": 139.632168
  },
  {
    "id": 9,
    "meeting_name": "墨田断酒会　第1例会",
    "next_date": "2026-07-02",
    "start_time": "18:30",
    "end_time": "20:30",
    "recurrence": "第1木曜",
    "address": "〒156-0052 東京都世田谷区経堂３丁目３７−１３",
    "prefecture": "東京都",
    "latitude": 35.651765,
    "longitude": 139.632168
  },
  {
    "id": 420,
    "meeting_name": "世田谷断酒会　玉川懇談会",
    "next_date": "2026-07-02",
    "start_time": "18:30",
    "end_time": "20:30",
    "recurrence": "第1木曜",
    "address": "用賀区民集会所, 日本、〒158-0097 東京都世田谷区用賀４丁目１０−６",
    "prefecture": "東京都",
    "latitude": 35.6271257,
    "longitude": 139.6315835
  },
  {
    "id": 80,
    "meeting_name": "未定)平塚例会",
    "next_date": "2026-07-02",
    "start_time": "18:45",
    "end_time": "20:30",
    "recurrence": "第1・第2木曜",
    "address": "〒244-0003 神奈川県横浜市戸塚区戸塚町１２７ 横浜市戸塚センター",
    "prefecture": "神奈川県",
    "latitude": 35.3979389,
    "longitude": 139.5326778
  },
  {
    "id": 404,
    "meeting_name": "目黒断酒会　懇談会",
    "next_date": "2026-07-02",
    "start_time": "19:00",
    "end_time": "20:30",
    "recurrence": "第1木曜",
    "address": "中央町社会教育館, 日本、〒152-0001 東京都目黒区中央町２丁目４−１８ 中央町さくらプラザ地下1階",
    "prefecture": "東京都",
    "latitude": 35.6322333,
    "longitude": 139.691941
  },
  {
    "id": 80,
    "meeting_name": "辻堂例会",
    "next_date": "2026-07-02",
    "start_time": "19:00",
    "end_time": "21:00",
    "recurrence": "第1木曜",
    "address": "〒244-0003 神奈川県横浜市戸塚区戸塚町１２７ 横浜市戸塚センター",
    "prefecture": "神奈川県",
    "latitude": 35.3979389,
    "longitude": 139.5326778
  },
  {
    "id": 16,
    "meeting_name": "足立断酒会　第1例会",
    "next_date": "2026-07-03",
    "start_time": "18:30",
    "end_time": "20:30",
    "recurrence": "第1金曜",
    "address": "〒121-0813 東京都足立区竹の塚２丁目２５−１７",
    "prefecture": "東京都",
    "latitude": 35.7925227,
    "longitude": 139.7950596
  },
  {
    "id": 410,
    "meeting_name": "大田断酒会　第1例会",
    "next_date": "2026-07-03",
    "start_time": "18:30",
    "end_time": "20:30",
    "recurrence": "第1金曜",
    "address": "カムカム新蒲田, 日本、〒144-0054 東京都大田区新蒲田１丁目１８−１６",
    "prefecture": "東京都",
    "latitude": 35.5574732,
    "longitude": 139.7113395
  },
  {
    "id": 155,
    "meeting_name": "鳩ヶ谷例会",
    "next_date": "2026-07-03",
    "start_time": "19:00",
    "end_time": "21:00",
    "recurrence": "第1・第5金曜",
    "address": "川口市大字里１４７８－１",
    "prefecture": "埼玉県",
    "latitude": 35.8285958,
    "longitude": 139.7308348
  },
  {
    "id": 123,
    "meeting_name": "逗子本部例会",
    "next_date": "2026-07-04",
    "start_time": "13:00",
    "end_time": "14:30",
    "recurrence": "第1土曜",
    "address": "〒249-0005 神奈川県逗子市桜山５丁目３２ 福祉会館",
    "prefecture": "神奈川県",
    "latitude": 35.2947084,
    "longitude": 139.5937798
  },
  {
    "id": 283,
    "meeting_name": "江戸川断酒会　第1例会",
    "next_date": "2026-07-04",
    "start_time": "13:30",
    "end_time": "15:30",
    "recurrence": "第1土曜",
    "address": "〒134-0091 東京都江戸川区船堀４丁目１−１",
    "prefecture": "東京都",
    "latitude": 35.6842543,
    "longitude": 139.8648859
  },
  {
    "id": 256,
    "meeting_name": "菜の花会",
    "next_date": "2026-07-04",
    "start_time": "14:15",
    "end_time": "16:15",
    "recurrence": "第1土曜",
    "address": "〒274-0825 千葉県船橋市前原西２丁目２１−２１",
    "prefecture": "千葉県",
    "latitude": 35.6927812,
    "longitude": 140.0227357
  },
  {
    "id": 80,
    "meeting_name": "秦野例会",
    "next_date": "2026-07-04",
    "start_time": "14:15",
    "end_time": "15:45",
    "recurrence": "第1土曜",
    "address": "〒244-0003 神奈川県横浜市戸塚区戸塚町１２７ 横浜市戸塚センター",
    "prefecture": "神奈川県",
    "latitude": 35.3979389,
    "longitude": 139.5326778
  },
  {
    "id": 256,
    "meeting_name": "アメシスト",
    "next_date": "2026-07-04",
    "start_time": "16:30",
    "end_time": "17:30",
    "recurrence": "第1土曜",
    "address": "〒274-0825 千葉県船橋市前原西２丁目２１−２１",
    "prefecture": "千葉県",
    "latitude": 35.6927812,
    "longitude": 140.0227357
  },
  {
    "id": 254,
    "meeting_name": "市川例会",
    "next_date": "2026-07-04",
    "start_time": "18:30",
    "end_time": "20:30",
    "recurrence": "第1土曜",
    "address": "〒272-0021 千葉県市川市八幡４丁目２−１",
    "prefecture": "千葉県",
    "latitude": 35.7241234,
    "longitude": 139.9307643
  },
  {
    "id": 69,
    "meeting_name": "浦和例会",
    "next_date": "2026-07-04",
    "start_time": "19:00",
    "end_time": "21:00",
    "recurrence": "第1土曜",
    "address": "〒330-0063 埼玉県さいたま市東浦和区高砂１１−１",
    "prefecture": "埼玉県",
    "latitude": 35.8574923,
    "longitude": 139.6496729
  },
  {
    "id": 138,
    "meeting_name": "朝霞例会",
    "next_date": "2026-07-04",
    "start_time": "19:00",
    "end_time": "21:00",
    "recurrence": "第1土曜",
    "address": "朝霞市浜崎669-1",
    "prefecture": "埼玉県",
    "latitude": 35.8133138,
    "longitude": 139.590402
  },
  {
    "id": 138,
    "meeting_name": "西部アメシスト例会",
    "next_date": "2026-07-04",
    "start_time": "19:00",
    "end_time": "21:00",
    "recurrence": "第1土曜",
    "address": "朝霞市浜崎669-1",
    "prefecture": "埼玉県",
    "latitude": 35.8133138,
    "longitude": 139.590402
  },
  {
    "id": 138,
    "meeting_name": "西部アメシスト",
    "next_date": "2026-07-04",
    "start_time": "19:00",
    "end_time": "21:00",
    "recurrence": "第1土曜",
    "address": "朝霞市浜崎669-1",
    "prefecture": "埼玉県",
    "latitude": 35.8133138,
    "longitude": 139.590402
  },
  {
    "id": 167,
    "meeting_name": "秩父例会",
    "next_date": "2026-07-05",
    "start_time": "13:00",
    "end_time": "15:00",
    "recurrence": "第1日曜",
    "address": "秩父市上宮地町27-5",
    "prefecture": "埼玉県",
    "latitude": 36.0026892,
    "longitude": 139.0906726
  },
  {
    "id": 10,
    "meeting_name": "江東婦",
    "next_date": "2026-07-05",
    "start_time": "13:30",
    "end_time": "15:30",
    "recurrence": "第1日曜",
    "address": "〒154-0004 東京都世田谷区太子堂１丁目１４−２０ 世田谷区立太子堂区民センター",
    "prefecture": "東京都",
    "latitude": 35.6428861,
    "longitude": 139.6736244
  },
  {
    "id": 9,
    "meeting_name": "世田谷断酒会　例会",
    "next_date": "2026-07-05",
    "start_time": "14:00",
    "end_time": "16:00",
    "recurrence": "第1・第2日曜",
    "address": "〒156-0052 東京都世田谷区経堂３丁目３７−１３",
    "prefecture": "東京都",
    "latitude": 35.651765,
    "longitude": 139.632168
  },
  {
    "id": 159,
    "meeting_name": "新生塾 東松山",
    "next_date": "2026-07-06",
    "start_time": "13:00",
    "end_time": "15:00",
    "recurrence": "第1月曜",
    "address": "東松山市松本町1-9-35",
    "prefecture": "埼玉県",
    "latitude": 36.037929,
    "longitude": 139.4109623
  },
  {
    "id": 27,
    "meeting_name": "文京断酒会　例会",
    "next_date": "2026-07-06",
    "start_time": "18:30",
    "end_time": "20:30",
    "recurrence": "第1月曜",
    "address": "〒112-0003 東京都文京区春日２丁目９−５",
    "prefecture": "東京都",
    "latitude": 35.7132763,
    "longitude": 139.7409537
  },
  {
    "id": 421,
    "meeting_name": "練馬断酒会　第1例会",
    "next_date": "2026-07-06",
    "start_time": "18:30",
    "end_time": "20:30",
    "recurrence": "第1月曜",
    "address": "豊玉北６丁目１２−１, 日本、〒176-0012 東京都練馬区豊玉北６丁目１２−１ 練馬区役所本庁舎 (地図",
    "prefecture": "東京都",
    "latitude": 35.7357846,
    "longitude": 139.6517759
  },
  {
    "id": 168,
    "meeting_name": "済生会鴻巣病院例会",
    "next_date": "2026-07-06",
    "start_time": "19:00",
    "end_time": "21:00",
    "recurrence": "第1・第3月曜",
    "address": "鴻巣市八幡田849",
    "prefecture": "埼玉県",
    "latitude": 36.0730901,
    "longitude": 139.5021799
  },
  {
    "id": 168,
    "meeting_name": "済生会鴻巣病院院内",
    "next_date": "2026-07-06",
    "start_time": "19:00",
    "end_time": "21:00",
    "recurrence": "第1・第3月曜",
    "address": "鴻巣市八幡田849",
    "prefecture": "埼玉県",
    "latitude": 36.0730901,
    "longitude": 139.5021799
  },
  {
    "id": 255,
    "meeting_name": "酒害教室",
    "next_date": "2026-07-07",
    "start_time": "14:00",
    "end_time": "16:00",
    "recurrence": "第1火曜",
    "address": "〒277-0004 千葉県柏市柏下６５−１−６５−１",
    "prefecture": "千葉県",
    "latitude": 35.8669173,
    "longitude": 139.9866516
  },
  {
    "id": 2,
    "meeting_name": "品川断酒会　例会",
    "next_date": "2026-07-07",
    "start_time": "18:30",
    "end_time": "20:30",
    "recurrence": "第1火曜",
    "address": "〒142-0043 東京都品川区二葉１丁目１−１−２",
    "prefecture": "東京都",
    "latitude": 35.6082279,
    "longitude": 139.7259931
  },
  {
    "id": 424,
    "meeting_name": "板橋断酒会　第1例会",
    "next_date": "2026-07-07",
    "start_time": "18:30",
    "end_time": "20:30",
    "recurrence": "第1火曜",
    "address": "まなぽーと大原（",
    "prefecture": "東京都",
    "latitude": 35.769695,
    "longitude": 139.7001404
  },
  {
    "id": 154,
    "meeting_name": "蕨くるる例会",
    "next_date": "2026-07-07",
    "start_time": "19:00",
    "end_time": "21:00",
    "recurrence": "第1火曜",
    "address": "蕨市中央１－２３－８",
    "prefecture": "埼玉県",
    "latitude": 35.8267645,
    "longitude": 139.6910616
  },
  {
    "id": 433,
    "meeting_name": "宇都宮断酒会 平石支部例会",
    "next_date": "2026-07-07",
    "start_time": "19:00",
    "end_time": "21:00",
    "recurrence": "第1・第3火曜",
    "address": "栃木県宇都宮市平出町158-1",
    "prefecture": "栃木県",
    "latitude": 36.5715212,
    "longitude": 139.9416156
  },
  {
    "id": 123,
    "meeting_name": "例会",
    "next_date": "2026-07-07",
    "start_time": "19:00",
    "end_time": "21:00",
    "recurrence": "第1火曜",
    "address": "〒249-0005 神奈川県逗子市桜山５丁目３２ 福祉会館",
    "prefecture": "神奈川県",
    "latitude": 35.2947084,
    "longitude": 139.5937798
  },
  {
    "id": 10,
    "meeting_name": "アメシスト第1例会",
    "next_date": "2026-07-08",
    "start_time": "13:30",
    "end_time": "15:30",
    "recurrence": "第2水曜",
    "address": "〒154-0004 東京都世田谷区太子堂１丁目１４−２０ 世田谷区立太子堂区民センター",
    "prefecture": "東京都",
    "latitude": 35.6428861,
    "longitude": 139.6736244
  },
  {
    "id": 38,
    "meeting_name": "新宿断酒会　第2例会",
    "next_date": "2026-07-08",
    "start_time": "18:00",
    "end_time": "19:30",
    "recurrence": "第2水曜",
    "address": "〒169-0075 東京都新宿区高田馬場２丁目１８−１ 新宿区戸塚特別出張所等区民施設",
    "prefecture": "東京都",
    "latitude": 35.7144575,
    "longitude": 139.7051045
  },
  {
    "id": 411,
    "meeting_name": "京王断酒会　調布第2懇談会",
    "next_date": "2026-07-08",
    "start_time": "18:30",
    "end_time": "20:30",
    "recurrence": "第2水曜",
    "address": "",
    "prefecture": "東京都",
    "latitude": 35.6764225,
    "longitude": 139.650027
  },
  {
    "id": 133,
    "meeting_name": "草加例会",
    "next_date": "2026-07-08",
    "start_time": "19:00",
    "end_time": "21:00",
    "recurrence": "第2水曜",
    "address": "草加市旭町6-13-20",
    "prefecture": "埼玉県",
    "latitude": 35.85132249999999,
    "longitude": 139.792294
  },
  {
    "id": 139,
    "meeting_name": "所沢例会",
    "next_date": "2026-07-08",
    "start_time": "19:00",
    "end_time": "21:00",
    "recurrence": "第2水曜",
    "address": "所沢市元町27-5",
    "prefecture": "埼玉県",
    "latitude": 35.7921822,
    "longitude": 139.4639861
  },
  {
    "id": 6,
    "meeting_name": "港断酒会　例会",
    "next_date": "2026-07-09",
    "start_time": "18:30",
    "end_time": "20:30",
    "recurrence": "第2木曜",
    "address": "〒108-0014 東京都港区芝５丁目１８−２ 都営芝五丁目アパート2号棟",
    "prefecture": "東京都",
    "latitude": 35.6482637,
    "longitude": 139.7483749
  },
  {
    "id": 159,
    "meeting_name": "東松山例会",
    "next_date": "2026-07-09",
    "start_time": "19:00",
    "end_time": "21:00",
    "recurrence": "第2木曜",
    "address": "東松山市松本町1-9-35",
    "prefecture": "埼玉県",
    "latitude": 36.037929,
    "longitude": 139.4109623
  },
  {
    "id": 9,
    "meeting_name": "昭島例会",
    "next_date": "2026-07-09",
    "start_time": "19:00",
    "end_time": "21:00",
    "recurrence": "第2木曜",
    "address": "〒156-0052 東京都世田谷区経堂３丁目３７−１３",
    "prefecture": "東京都",
    "latitude": 35.651765,
    "longitude": 139.632168
  },
  {
    "id": 32,
    "meeting_name": "練馬断酒会　石神井懇談会",
    "next_date": "2026-07-10",
    "start_time": "18:30",
    "end_time": "20:30",
    "recurrence": "第2金曜",
    "address": "",
    "prefecture": "東京都",
    "latitude": 35.7451911,
    "longitude": 139.6015934
  },
  {
    "id": 153,
    "meeting_name": "蕨南例会",
    "next_date": "2026-07-10",
    "start_time": "19:00",
    "end_time": "21:00",
    "recurrence": "第2金曜",
    "address": "蕨市南町２－２３－１９",
    "prefecture": "埼玉県",
    "latitude": 35.8183185,
    "longitude": 139.6961789
  },
  {
    "id": 364,
    "meeting_name": "荒川断酒会　懇談会",
    "next_date": "2026-07-10",
    "start_time": "19:00",
    "end_time": "20:30",
    "recurrence": "第2金曜",
    "address": "〒116-0014 東京都荒川区東日暮里１丁目１７−",
    "prefecture": "東京都",
    "latitude": 35.7300027,
    "longitude": 139.7896524
  },
  {
    "id": 80,
    "meeting_name": "逗子支部例会",
    "next_date": "2026-07-10",
    "start_time": "19:00",
    "end_time": "20:30",
    "recurrence": "第2金曜",
    "address": "〒244-0003 神奈川県横浜市戸塚区戸塚町１２７ 横浜市戸塚センター",
    "prefecture": "神奈川県",
    "latitude": 35.3979389,
    "longitude": 139.5326778
  },
  {
    "id": 254,
    "meeting_name": "酒なし新年会",
    "next_date": "2026-07-11",
    "start_time": "13:00",
    "end_time": "15:30",
    "recurrence": "第2土曜",
    "address": "〒272-0021 千葉県市川市八幡４丁目２−１",
    "prefecture": "千葉県",
    "latitude": 35.7241234,
    "longitude": 139.9307643
  },
  {
    "id": 254,
    "meeting_name": "県本部例会",
    "next_date": "2026-07-11",
    "start_time": "18:30",
    "end_time": "20:30",
    "recurrence": "第2土曜",
    "address": "〒272-0021 千葉県市川市八幡４丁目２−１",
    "prefecture": "千葉県",
    "latitude": 35.7241234,
    "longitude": 139.9307643
  },
  {
    "id": 2,
    "meeting_name": "品川断酒会　懇談会",
    "next_date": "2026-07-11",
    "start_time": "18:30",
    "end_time": "20:30",
    "recurrence": "第2土曜",
    "address": "〒142-0043 東京都品川区二葉１丁目１−１−２",
    "prefecture": "東京都",
    "latitude": 35.6082279,
    "longitude": 139.7259931
  },
  {
    "id": 34,
    "meeting_name": "中央断酒会　例会",
    "next_date": "2026-07-11",
    "start_time": "18:30",
    "end_time": "20:00",
    "recurrence": "第2土曜",
    "address": "〒103-0001 東京都中央区日本橋小伝馬町５−１",
    "prefecture": "東京都",
    "latitude": 35.6909163,
    "longitude": 139.7770622
  },
  {
    "id": 406,
    "meeting_name": "江東第１例会",
    "next_date": "2026-07-11",
    "start_time": "18:30",
    "end_time": "20:45",
    "recurrence": "第2土曜",
    "address": "富岡区民館, 日本、〒135-0047 東京都江東区富岡１丁目１６−１２",
    "prefecture": "東京都",
    "latitude": 35.671759,
    "longitude": 139.7985814
  },
  {
    "id": 406,
    "meeting_name": "江東断酒会　第1例会",
    "next_date": "2026-07-11",
    "start_time": "18:30",
    "end_time": "20:45",
    "recurrence": "第2土曜",
    "address": "富岡区民館, 日本、〒135-0047 東京都江東区富岡１丁目１６−１２",
    "prefecture": "東京都",
    "latitude": 35.671759,
    "longitude": 139.7985814
  },
  {
    "id": 69,
    "meeting_name": "埼玉中央本部例会",
    "next_date": "2026-07-11",
    "start_time": "19:00",
    "end_time": "21:00",
    "recurrence": "第2土曜",
    "address": "〒330-0063 埼玉県さいたま市東浦和区高砂１１−１",
    "prefecture": "埼玉県",
    "latitude": 35.8574923,
    "longitude": 139.6496729
  },
  {
    "id": 69,
    "meeting_name": "中央本部例会",
    "next_date": "2026-07-11",
    "start_time": "19:00",
    "end_time": "20:30",
    "recurrence": "第2土曜",
    "address": "〒330-0063 埼玉県さいたま市東浦和区高砂１１−１",
    "prefecture": "埼玉県",
    "latitude": 35.8574923,
    "longitude": 139.6496729
  },
  {
    "id": 141,
    "meeting_name": "川越例会",
    "next_date": "2026-07-11",
    "start_time": "19:00",
    "end_time": "21:00",
    "recurrence": "第2土曜",
    "address": "川越市藤間27-1",
    "prefecture": "埼玉県",
    "latitude": 35.8859582,
    "longitude": 139.4965871
  },
  {
    "id": 630,
    "meeting_name": "川越例会",
    "next_date": "2026-07-11",
    "start_time": "19:00",
    "end_time": "21:00",
    "recurrence": "第2土曜",
    "address": "",
    "prefecture": "埼玉県",
    "latitude": 35.885499,
    "longitude": 139.497001
  },
  {
    "id": 415,
    "meeting_name": "新宿断酒会　第1例会",
    "next_date": "2026-07-12",
    "start_time": "10:00",
    "end_time": "11:30",
    "recurrence": "第2日曜",
    "address": "大久保スポーツプラザ, 日本、〒169-0072 東京都新宿区大久保３丁目７−４２ 大久保スポーツプラザ",
    "prefecture": "東京都",
    "latitude": 35.7064806,
    "longitude": 139.7019513
  },
  {
    "id": 71,
    "meeting_name": "⭐️横浜酒害相談：14階セルフヘルプ第１相談室",
    "next_date": "2026-07-12",
    "start_time": "10:00",
    "end_time": "12:00",
    "recurrence": "第2日曜",
    "address": "〒221-0835 神奈川県横浜市神奈川区鶴屋町２丁目２４−２",
    "prefecture": "神奈川県",
    "latitude": 35.4684095,
    "longitude": 139.6207449
  },
  {
    "id": 71,
    "meeting_name": "横浜酒害相談：14階セルフヘルプ第１相談室",
    "next_date": "2026-07-12",
    "start_time": "10:00",
    "end_time": "12:00",
    "recurrence": "第2日曜",
    "address": "〒221-0835 神奈川県横浜市神奈川区鶴屋町２丁目２４−２",
    "prefecture": "神奈川県",
    "latitude": 35.4684095,
    "longitude": 139.6207449
  },
  {
    "id": 71,
    "meeting_name": "合同例会",
    "next_date": "2026-07-12",
    "start_time": "13:00",
    "end_time": "15:30",
    "recurrence": "第2日曜",
    "address": "〒221-0835 神奈川県横浜市神奈川区鶴屋町２丁目２４−２",
    "prefecture": "神奈川県",
    "latitude": 35.4684095,
    "longitude": 139.6207449
  },
  {
    "id": 128,
    "meeting_name": "本部例会",
    "next_date": "2026-07-12",
    "start_time": "13:30",
    "end_time": "15:30",
    "recurrence": "第2日曜",
    "address": "さいたま市岩槻区本町3-1-1",
    "prefecture": "埼玉県",
    "latitude": 35.950119,
    "longitude": 139.6932583
  },
  {
    "id": 110,
    "meeting_name": "本部例会",
    "next_date": "2026-07-12",
    "start_time": "13:30",
    "end_time": "15:30",
    "recurrence": "第2日曜",
    "address": "〒238-0046 神奈川県横須賀市西逸見町１丁目１−３８−１１",
    "prefecture": "神奈川県",
    "latitude": 35.2842547,
    "longitude": 139.6521476
  },
  {
    "id": 126,
    "meeting_name": "酒害相談",
    "next_date": "2026-07-13",
    "start_time": "15:00",
    "end_time": "16:30",
    "recurrence": "第2月曜",
    "address": "〒238-0221 神奈川県三浦市三崎町六合３２−３２",
    "prefecture": "神奈川県",
    "latitude": 35.1569734,
    "longitude": 139.6387912
  },
  {
    "id": 409,
    "meeting_name": "豊島断酒会　例会",
    "next_date": "2026-07-13",
    "start_time": "18:30",
    "end_time": "20:30",
    "recurrence": "第2・第3月曜",
    "address": "区民ひろば駒込, 日本、〒170-0003 東京都豊島区駒込２丁目２−４",
    "prefecture": "東京都",
    "latitude": 35.7370164,
    "longitude": 139.74752
  },
  {
    "id": 80,
    "meeting_name": "三浦支部例会",
    "next_date": "2026-07-13",
    "start_time": "19:00",
    "end_time": "20:00",
    "recurrence": "第2月曜",
    "address": "〒244-0003 神奈川県横浜市戸塚区戸塚町１２７ 横浜市戸塚センター",
    "prefecture": "神奈川県",
    "latitude": 35.3979389,
    "longitude": 139.5326778
  },
  {
    "id": 249,
    "meeting_name": "千代田断酒会　例会",
    "next_date": "2026-07-14",
    "start_time": "18:30",
    "end_time": "20:30",
    "recurrence": "第2火曜",
    "address": "〒198-0042 東京都青梅市東青梅１丁目１７７−３",
    "prefecture": "東京都",
    "latitude": 35.7875224,
    "longitude": 139.2741844
  },
  {
    "id": 64,
    "meeting_name": "埼玉中央【浦和昼例会】",
    "next_date": "2026-07-15",
    "start_time": "13:30",
    "end_time": "15:00",
    "recurrence": "第3水曜",
    "address": "〒330-0061 埼玉県さいたま市浦和区常盤９丁目３０−２２",
    "prefecture": "埼玉県",
    "latitude": 35.8711464,
    "longitude": 139.6428014
  },
  {
    "id": 69,
    "meeting_name": "浦和昼例会",
    "next_date": "2026-07-15",
    "start_time": "13:30",
    "end_time": "15:30",
    "recurrence": "第3水曜",
    "address": "〒330-0063 埼玉県さいたま市東浦和区高砂１１−１",
    "prefecture": "埼玉県",
    "latitude": 35.8574923,
    "longitude": 139.6496729
  },
  {
    "id": 10,
    "meeting_name": "北断酒会　第2例会",
    "next_date": "2026-07-15",
    "start_time": "18:30",
    "end_time": "20:30",
    "recurrence": "第3水曜",
    "address": "〒154-0004 東京都世田谷区太子堂１丁目１４−２０ 世田谷区立太子堂区民センター",
    "prefecture": "東京都",
    "latitude": 35.6428861,
    "longitude": 139.6736244
  },
  {
    "id": 411,
    "meeting_name": "京王断酒会　調布第3懇談会",
    "next_date": "2026-07-15",
    "start_time": "18:30",
    "end_time": "20:30",
    "recurrence": "第3水曜",
    "address": "",
    "prefecture": "東京都",
    "latitude": 35.6764225,
    "longitude": 139.650027
  },
  {
    "id": 137,
    "meeting_name": "西部本部例会",
    "next_date": "2026-07-15",
    "start_time": "19:00",
    "end_time": "21:00",
    "recurrence": "第3水曜",
    "address": "富士見市針ヶ谷1-38",
    "prefecture": "埼玉県",
    "latitude": 35.8320496,
    "longitude": 139.5539752
  },
  {
    "id": 162,
    "meeting_name": "北部本部例会",
    "next_date": "2026-07-15",
    "start_time": "19:00",
    "end_time": "21:00",
    "recurrence": "第3水曜",
    "address": "〒360-0047 埼玉県熊谷市仲町19",
    "prefecture": "埼玉県",
    "latitude": 36.1475166,
    "longitude": 139.3829333
  },
  {
    "id": 150,
    "meeting_name": "ミッドナイト例会",
    "next_date": "2026-07-20",
    "start_time": "19:30",
    "end_time": "21:30",
    "recurrence": "第3月曜",
    "address": "さいたま市大宮区大門町2-118　大宮門街4-8F",
    "prefecture": "埼玉県",
    "latitude": 35.9073411,
    "longitude": 139.6273466
  },
  {
    "id": 80,
    "meeting_name": "相談·質問",
    "next_date": "2026-07-21",
    "start_time": "12:45",
    "end_time": "18:45",
    "recurrence": "第3火曜",
    "address": "〒244-0003 神奈川県横浜市戸塚区戸塚町１２７ 横浜市戸塚センター",
    "prefecture": "神奈川県",
    "latitude": 35.3979389,
    "longitude": 139.5326778
  },
  {
    "id": 110,
    "meeting_name": "中央支部例会",
    "next_date": "2026-07-21",
    "start_time": "19:00",
    "end_time": "20:15",
    "recurrence": "第3火曜",
    "address": "〒238-0046 神奈川県横須賀市西逸見町１丁目１−３８−１１",
    "prefecture": "神奈川県",
    "latitude": 35.2842547,
    "longitude": 139.6521476
  },
  {
    "id": 411,
    "meeting_name": "京王断酒会　調布第5懇談会",
    "next_date": "2026-07-29",
    "start_time": "18:30",
    "end_time": "20:30",
    "recurrence": "第5水曜",
    "address": "",
    "prefecture": "東京都",
    "latitude": 35.6764225,
    "longitude": 139.650027
  }
]